[{"id": "ChIJlezJTmw1K4gRJDrMb0KGtXI", "types": ["gas_station", "convenience_store", "car_wash", "store", "food", "point_of_interest", "establishment"], "formattedAddress": "1292 Dupont St, Toronto, ON M6H 2A4, Canada", "location": {"latitude": 43.667743, "longitude": -79.44403899999999}, "rating": 4.1, "userRatingCount": 180, "displayName": {"text": "Pioneer - Gas Station", "languageCode": "en"}, "primaryType": "gas_station", "paymentOptions": {"acceptsCreditCards": true, "acceptsDebitCards": true, "acceptsNfc": true}}, {"id": "ChIJCy-Yl0k0K4gRaofyG86xwKA", "types": ["gas_station", "fast_food_restaurant", "convenience_store", "meal_delivery", "car_wash", "store", "restaurant", "food", "point_of_interest", "establishment"], "formattedAddress": "2010 Dundas St W, Toronto, ON M6R 1W6, Canada", "location": {"latitude": 43.6516519, "longitude": -79.4462939}, "rating": 3.7, "priceLevel": "PRICE_LEVEL_MODERATE", "userRatingCount": 131, "displayName": {"text": "Shell", "languageCode": "en"}, "primaryType": "gas_station", "paymentOptions": {"acceptsNfc": true}}, {"id": "ChIJFQCNlB40K4gRsc-f5AwS9QA", "types": ["gas_station", "convenience_store", "car_wash", "store", "food", "point_of_interest", "establishment"], "formattedAddress": "537 Keele St, Toronto, ON M6N 3E4, Canada", "location": {"latitude": 43.67020110000001, "longitude": -79.46627280000001}, "rating": 3.1, "userRatingCount": 67, "displayName": {"text": "Esso", "languageCode": "en"}, "primaryType": "gas_station", "paymentOptions": {"acceptsNfc": true}}, {"id": "ChIJn7k-vkJTV0AR7rYHrgDORWg", "types": ["gas_station", "convenience_store", "car_wash", "store", "food", "point_of_interest", "establishment"], "formattedAddress": "8 S Kingsway, Toronto, ON M6S 3S9, Canada", "location": {"latitude": 43.636348999999996, "longitude": -79.47548599999999}, "rating": 3.3, "userRatingCount": 182, "displayName": {"text": "Petro-Canada & Car Wash", "languageCode": "en"}, "primaryType": "gas_station", "paymentOptions": {"acceptsDebitCards": true, "acceptsNfc": true}}, {"id": "ChIJJ-0NzK40K4gR3vk5iKIowrQ", "types": ["gas_station", "car_wash", "point_of_interest", "establishment"], "formattedAddress": "835 Yonge St, Toronto, ON M4W 2H2, Canada", "location": {"latitude": 43.673138699999996, "longitude": -79.38755979999999}, "rating": 3.5, "userRatingCount": 143, "displayName": {"text": "Canadian Tire Gas+", "languageCode": "en"}, "primaryType": "gas_station"}, {"id": "ChIJHRBIcmEzK4gRAO0a4BLfe3o", "types": ["electric_vehicle_charging_station", "car_wash", "parking", "point_of_interest", "establishment"], "formattedAddress": "2300 Yonge Street Yonge Eglinton Centre, Toronto, ON M4P 1E4, Canada", "location": {"latitude": 43.707853300000004, "longitude": -79.4001487}, "rating": 2.3, "userRatingCount": 27, "displayName": {"text": "Yonge and Eglinton Centre Parking- Precise ParkLink", "languageCode": "en"}, "primaryType": "parking"}, {"id": "ChIJrSEfSGk0K4gR4h_H9wHYjRs", "types": ["car_wash", "point_of_interest", "establishment"], "formattedAddress": "1212 Dupont St, Toronto, ON M6H 2A4, Canada", "location": {"latitude": 43.6685108, "longitude": -79.440764}, "rating": 3.9, "userRatingCount": 441, "displayName": {"text": "Crosstown Car Wash", "languageCode": "en"}, "primaryType": "car_wash", "paymentOptions": {"acceptsDebitCards": true, "acceptsNfc": true}}, {"id": "ChIJC_wli6E0K4gRyCPbwnb3OHs", "types": ["car_wash", "point_of_interest", "establishment"], "formattedAddress": "333 Davenport Rd, Toronto, ON M5R 1K5, Canada", "location": {"latitude": 43.6749139, "longitude": -79.4015405}, "rating": 3.4, "userRatingCount": 416, "displayName": {"text": "Esso Car Wash", "languageCode": "en"}, "primaryType": "car_wash", "paymentOptions": {"acceptsNfc": true}}, {"id": "ChIJaz87Rk40K4gRRek2P92BNYQ", "types": ["car_wash", "point_of_interest", "establishment"], "formattedAddress": "1286 College St, Toronto, ON M6H 1C4, Canada", "location": {"latitude": 43.651316, "longitude": -79.43998189999999}, "rating": 3.8, "userRatingCount": 341, "displayName": {"text": "Classic Coin Car Wash", "languageCode": "en"}, "primaryType": "car_wash", "paymentOptions": {"acceptsCreditCards": false, "acceptsDebitCards": false, "acceptsNfc": false}}, {"id": "ChIJm0kEhBo1K4gRZ3x8UfkyZCg", "types": ["car_wash", "point_of_interest", "establishment"], "formattedAddress": "1180 Dupont St, Toronto, ON M6H 2A4, Canada", "location": {"latitude": 43.6686981, "longitude": -79.4394819}, "rating": 4.7, "userRatingCount": 270, "displayName": {"text": "D's Spotless Auto Detailing Ltd.", "languageCode": "en"}, "primaryType": "car_wash"}, {"id": "ChIJL42URVXM1IkROIyd1xgunOs", "types": ["gas_station", "convenience_store", "meal_delivery", "car_wash", "store", "food", "point_of_interest", "establishment"], "formattedAddress": "705 Don Mills Rd., North York, ON M3C 1S1, Canada", "location": {"latitude": 43.7095441, "longitude": -79.33369720000002}, "rating": 3.2, "priceLevel": "PRICE_LEVEL_MODERATE", "userRatingCount": 165, "displayName": {"text": "Shell", "languageCode": "en"}, "primaryType": "gas_station", "paymentOptions": {"acceptsDebitCards": true, "acceptsNfc": true}}, {"id": "ChIJd3EzIejM1IkRwPNp_YABOM8", "types": ["gas_station", "convenience_store", "car_wash", "store", "food", "point_of_interest", "establishment"], "formattedAddress": "1070 Millwood Rd, Toronto, ON M4H 1A2, Canada", "location": {"latitude": 43.702449, "longitude": -79.35790109999999}, "rating": 3.9, "userRatingCount": 52, "displayName": {"text": "Esso", "languageCode": "en"}, "primaryType": "gas_station", "paymentOptions": {"acceptsDebitCards": true, "acceptsNfc": true}}, {"id": "ChIJd69EaWzM1IkRRhGnA-6Ynfw", "types": ["car_wash", "point_of_interest", "establishment"], "formattedAddress": "1901 Danforth Ave, Toronto, ON M4C 1J5, Canada", "location": {"latitude": 43.6847296, "longitude": -79.3165863}, "rating": 4.1, "userRatingCount": 631, "displayName": {"text": "Splash N Shine Hand Car Wash and Detailing", "languageCode": "en"}, "primaryType": "car_wash", "paymentOptions": {"acceptsDebitCards": true, "acceptsNfc": true}}, {"id": "ChIJw87H0pg2K4gRHWYNKjMgAdI", "types": ["car_wash", "point_of_interest", "establishment"], "formattedAddress": "3193 Dundas St W, Toronto, ON M6P 2A2, Canada", "location": {"latitude": 43.6654529, "longitude": -79.4765341}, "rating": 4.4, "userRatingCount": 399, "displayName": {"text": "Junction Car Wash", "languageCode": "en"}, "primaryType": "car_wash", "paymentOptions": {"acceptsDebitCards": true, "acceptsNfc": true}}, {"id": "ChIJcd4wLIUzK4gR5Z5VkGiSto0", "types": ["electric_vehicle_charging_station", "car_wash", "parking", "point_of_interest", "establishment"], "formattedAddress": "9 Broadway Ave, Toronto, ON M4P 1T7, Canada", "location": {"latitude": 43.7095929, "longitude": -79.3980119}, "rating": 2.6, "userRatingCount": 10, "displayName": {"text": "Edison Centre Parking- Precise ParkLink", "languageCode": "en"}, "primaryType": "parking"}, {"id": "ChIJFdFiOonL1IkRCzo7vPpr7vQ", "types": ["car_wash", "car_repair", "point_of_interest", "establishment"], "formattedAddress": "828 Eastern Ave, Toronto, ON M4L 1A1, Canada", "location": {"latitude": 43.6619779, "longitude": -79.32885019999999}, "rating": 4.4, "userRatingCount": 207, "displayName": {"text": "Grand Car Wash & Detailing", "languageCode": "en"}, "primaryType": "car_wash", "paymentOptions": {"acceptsDebitCards": true, "acceptsNfc": true}}, {"id": "ChIJFwJeZhbM1IkRiBFKh2mjTd4", "types": ["car_wash", "point_of_interest", "establishment"], "formattedAddress": "2388 Danforth Ave, Toronto, ON M4C 1K7, Canada", "location": {"latitude": 43.6874533, "longitude": -79.3059789}, "rating": 3, "userRatingCount": 493, "displayName": {"text": "Car Wash", "languageCode": "en"}, "primaryType": "car_wash", "paymentOptions": {"acceptsDebitCards": true}}, {"id": "ChIJz7ZY-NTM1IkRWMt2XSygx8E", "types": ["car_wash", "point_of_interest", "establishment"], "formattedAddress": "1802 Bayview Ave, Toronto, ON M4G 4G7, Canada", "location": {"latitude": 43.712286299999995, "longitude": -79.37786679999999}, "rating": 3.9, "userRatingCount": 291, "displayName": {"text": "Bayview Car Wash", "languageCode": "en"}, "primaryType": "car_wash", "paymentOptions": {"acceptsDebitCards": true, "acceptsNfc": true}}, {"id": "ChIJc_1j5sEzK4gRbBpiFHlEblI", "types": ["car_wash", "point_of_interest", "establishment"], "formattedAddress": "2749 Dufferin St, North York, ON M6B 3R5, Canada", "location": {"latitude": 43.703558699999995, "longitude": -79.4517233}, "rating": 3.7, "userRatingCount": 198, "displayName": {"text": "Jet Hot Coin Car Wash", "languageCode": "en"}, "primaryType": "car_wash"}, {"id": "ChIJv6_6Nqk2K4gRcQu0nRxU4iQ", "types": ["car_wash", "point_of_interest", "establishment"], "formattedAddress": "370 Weston Rd #364, York, ON M6N 3P7, Canada", "location": {"latitude": 43.679994799999996, "longitude": -79.4754805}, "rating": 3.9, "userRatingCount": 226, "displayName": {"text": "Five Star Car Wash", "languageCode": "en"}, "primaryType": "car_wash", "paymentOptions": {"acceptsDebitCards": true, "acceptsNfc": true}}]