[{"id": "ChIJcyADYezPwxUR6PTp1Cfp8ho", "types": ["parking", "point_of_interest", "establishment"], "formattedAddress": "G5G9+7GW, Abdul Wahab Naib Al Haram, Al-Hamra'a, Jeddah 23323, Saudi Arabia", "location": {"latitude": 21.525745999999998, "longitude": 39.168835099999995}, "rating": 3.6, "userRatingCount": 92, "displayName": {"text": "Fakeeh Hospital Paid Parking", "languageCode": "en"}, "primaryType": "parking"}, {"id": "ChIJt7PYhhPQwxURbgZ-cIcsVHQ", "types": ["parking", "point_of_interest", "establishment"], "formattedAddress": "4770 Raoudat Al Khaleej, Ar Rawdah, Jeddah 23432, Saudi Arabia", "location": {"latitude": 21.559468499999998, "longitude": 39.1704521}, "rating": 4.1, "userRatingCount": 15, "displayName": {"text": "Sarawat Parking", "languageCode": "en"}, "primaryType": "parking"}, {"id": "ChIJv674MQDPwxURQ2j-eK8RDsE", "types": ["parking", "point_of_interest", "establishment"], "formattedAddress": "Al-Hamra'a, Jeddah 23323, Saudi Arabia", "location": {"latitude": 21.5291545, "longitude": 39.1610863}, "rating": 4.5, "userRatingCount": 2, "displayName": {"text": "\u0628\u0631\u062d\u0629 \u063a\u0644\u064a\u0644 \u0644\u0644\u062f\u064a\u0646\u0627\u062a \u0648\u0627\u0644\u0644\u0648\u0627\u0631\u064a", "languageCode": "ar"}, "primaryType": "parking"}, {"id": "ChIJm9Q4RPjRwxURnsF51iZdx94", "types": ["parking", "point_of_interest", "establishment"], "formattedAddress": "Al Andalus, Jeddah 23325, Saudi Arabia", "location": {"latitude": 21.5512609, "longitude": 39.1635847}, "rating": 5, "userRatingCount": 41, "displayName": {"text": "Luxury parking Jeddah | \u0644\u0627\u0643\u062c\u0631\u064a \u0628\u0627\u0631\u0643\u0646\u062c \u062c\u062f\u0629 \u0634\u0627\u0631\u0639 \u0627\u0644\u062a\u062d\u0644\u064a\u0629", "languageCode": "en"}, "primaryType": "parking"}, {"id": "ChIJf1gQpbHPwxURR0CXX6wcnKs", "types": ["parking", "point_of_interest", "establishment"], "formattedAddress": "JCAA8060, 8060, 3366 \u0627\u0644\u0645\u0633\u062a\u0634\u0641\u0649 \u0627\u0644\u0639\u0627\u0645\u060c \u0627\u0644\u0623\u0646\u062f\u0644\u0633\u060c \u062c\u062f\u0629 23325, Saudi Arabia", "location": {"latitude": 21.5422556, "longitude": 39.166012699999996}, "displayName": {"text": "ARSANN \u0627\u0631\u0633\u0627\u0646", "languageCode": "en"}, "primaryType": "parking"}, {"id": "ChIJAelN7EPPwxUR6cnQAf4AUHc", "types": ["parking", "point_of_interest", "establishment"], "formattedAddress": "JCHA6982, 6982, 4627 \u0637\u0631\u064a\u0642 \u0627\u0644\u0645\u062f\u064a\u0646\u0629 \u0627\u0644\u0645\u0646\u0648\u0631\u0629\u060c Al Hamra District, \u062c\u062f\u0629 23324, Saudi Arabia", "location": {"latitude": 21.531914099999998, "longitude": 39.178512399999995}, "displayName": {"text": "STC 202", "languageCode": "en"}, "primaryType": "parking"}, {"id": "ChIJP4lxgSDQwxURToc3uRqrGPk", "types": ["parking", "point_of_interest", "establishment"], "formattedAddress": "2476 Al-Madinah Al-Munawarah Rd, Mishrifah, Jeddah 23332, Saudi Arabia", "location": {"latitude": 21.5406199, "longitude": 39.178039}, "rating": 3.3, "userRatingCount": 15, "displayName": {"text": "\u0645\u0648\u0627\u0642\u0641 \u0633\u064a\u0627\u0631\u0627\u062a \u0628\u0646\u0643 \u0627\u0644\u062a\u0633\u0644\u064a\u0641", "languageCode": "ur"}, "primaryType": "parking"}, {"id": "ChIJM-4K01LRwxUR7xc-MS00-Nk", "types": ["parking", "point_of_interest", "establishment"], "formattedAddress": "3541, 7870 \u0627\u0644\u0641\u0644\u0643\u064a, Al Aziziyah District, \u062c\u062f\u0629 23333, Saudi Arabia", "location": {"latitude": 21.546445, "longitude": 39.18873}, "displayName": {"text": "Zia uddin \u0633\u0645\u0643\u0631\u0629", "languageCode": "en"}, "primaryType": "parking"}, {"id": "ChIJnfu2BqTRwxURxLA8mJpKFtc", "types": ["parking", "point_of_interest", "establishment"], "formattedAddress": "3361 \u0645\u0636\u064a\u0642 \u0637\u0627\u0631\u0642\u060c 8409\u060c \u062d\u064a \u0627\u0644\u0627\u0646\u062f\u0644\u0633\u060c\u060c Al Andalus, Jeddah 23325, Saudi Arabia", "location": {"latitude": 21.545023699999998, "longitude": 39.1657374}, "displayName": {"text": "\u0627\u0644\u0639\u0645\u0644 \u0627\u0644\u0645\u0648\u0627\u0642\u0641", "languageCode": "ar"}, "primaryType": "parking"}, {"id": "ChIJ69vRd9DPwxUR63_NqkLRNq4", "types": ["parking", "point_of_interest", "establishment"], "formattedAddress": "2649 Palestine, \u062d\u064a \u0627\u0644\u0634\u0631\u0641\u064a\u0629, Jeddah 23218, Saudi Arabia", "location": {"latitude": 21.530115799999997, "longitude": 39.1856132}, "rating": 3.9, "userRatingCount": 8, "displayName": {"text": "\u0645\u0648\u0627\u0642\u0641 \u0627\u0631\u0636\u064a\u0629 \u0645\u062c\u0627\u0646\u064a\u0629", "languageCode": "ar"}, "primaryType": "parking"}, {"id": "ChIJpxALhWfRwxURDvgrFF16uqE", "types": ["parking", "point_of_interest", "establishment"], "formattedAddress": "6235 \u0628\u0634\u064a\u0631 \u0628\u0646 \u0627\u0628\u064a \u0632\u064a\u062f\u060c \u062d\u064a \u0627\u0644\u0641\u064a\u0635\u0644\u064a\u0629\u060c \u062c\u062f\u0629 23441 3191\u060c Al Faisaliyyah, Jeddah 23441, Saudi Arabia", "location": {"latitude": 21.5579511, "longitude": 39.1768733}, "rating": 5, "userRatingCount": 1, "displayName": {"text": "\u0645\u0648\u0627\u0642\u0641 \u0633\u064a\u0627\u0631\u0627\u062a \u0645\u0633\u062a\u0634\u0641\u0649 \u0628\u0642\u0634\u0627\u0646", "languageCode": "ar"}, "primaryType": "parking"}, {"id": "ChIJvVoqI_DPwxUR_u65J8R8qRA", "types": ["parking", "point_of_interest", "establishment"], "formattedAddress": "\u0634\u0627\u0631\u0639 \u0641\u0644\u0633\u0637\u064a\u0646\u060c\u060c G5JM+5HM, Mishrifah, Jeddah 23331, Saudi Arabia", "location": {"latitude": 21.5304598, "longitude": 39.1839231}, "rating": 5, "userRatingCount": 2, "displayName": {"text": "\u0645\u0648\u0642\u0641 \u0644\u0630\u0648\u064a \u0627\u0644\u0627\u062d\u062a\u064a\u0627\u062c\u0627\u062a \u0627\u0644\u062e\u0627\u0635\u0647", "languageCode": "ar"}, "primaryType": "parking"}, {"id": "ChIJc3Vij7TRwxUR_1HVA2UC_v8", "types": ["parking", "point_of_interest", "establishment"], "formattedAddress": "\u0627\u0644\u0631\u0648\u0636\u0629\u060c\u060c H54C+F28, Ar Rawdah, Jeddah 23432, Saudi Arabia", "location": {"latitude": 21.5561519, "longitude": 39.1700722}, "rating": 4, "userRatingCount": 1, "displayName": {"text": "\u0645\u0648\u0642\u0641 \u0646\u064a\u0648 \u062a\u0627\u0648\u0646 \u0633\u0646\u062a\u0631", "languageCode": "ar"}, "primaryType": "parking"}, {"id": "ChIJlY3a9Q7RwxURdCwrDO6CHrQ", "types": ["parking", "point_of_interest", "establishment"], "formattedAddress": "H55G+3QJ, Al Faisaliyyah, Jeddah 23441, Saudi Arabia", "location": {"latitude": 21.5577236, "longitude": 39.1769029}, "displayName": {"text": "Bugshan Hospital Staff Parking", "languageCode": "en"}, "primaryType": "parking"}, {"id": "ChIJkb0_2VPRwxURkoUuQUlGGxA", "types": ["parking", "point_of_interest", "establishment"], "formattedAddress": "\u0627\u0644\u0631\u0648\u0636\u0629\u060c\u060c \u0627\u0644\u0631\u0648\u0636\u0629\u060c \u062c\u062f\u0629 23432\u060c\u060c Ar Rawdah, Jeddah 23432, Saudi Arabia", "location": {"latitude": 21.5560494, "longitude": 39.170227499999996}, "displayName": {"text": "\u0645\u0648\u0627\u0642\u0641 \u0633\u064a\u0627\u0631\u0627\u062a", "languageCode": "ar"}, "primaryType": "parking"}, {"id": "ChIJhZDtfp7RwxURtTizxrHiDnw", "types": ["parking", "point_of_interest", "establishment"], "formattedAddress": "8206 \u0637\u0631\u064a\u0642 \u0627\u0644\u0645\u062f\u064a\u0646\u0629 \u0627\u0644\u0645\u0646\u0648\u0631\u0629 \u0627\u0644\u0641\u0631\u0639\u064a\u060c \u062d\u064a \u0627\u0644\u0627\u0646\u062f\u0644\u0633\u060c \u062c\u062f\u0629 23325 4369\u060c\u060c Al Andalus, Jeddah 23325, Saudi Arabia", "location": {"latitude": 21.5421156, "longitude": 39.1748251}, "rating": 4.5, "userRatingCount": 2, "displayName": {"text": "\u0645\u0648\u0642\u0641 \u0633\u064a\u0627\u0631\u0627\u062a \u0627\u0644\u0645\u0631\u0627\u062c\u0639\u064a\u0646", "languageCode": "ar"}, "primaryType": "parking"}, {"id": "ChIJNc3xU2rPwxUR7LJz-_x1K-Q", "types": ["parking", "point_of_interest", "establishment"], "formattedAddress": "G5PG+PP9 Musadiyah Plaza - \u0633\u0648\u0642 \u0627\u0644\u0645\u0633\u0627\u0639\u062f\u064a\u0629, Al-Madinah Al-Munawarah Rd, Al-Hamra'a, Jeddah 23324, Saudi Arabia", "location": {"latitude": 21.536756, "longitude": 39.17682870000001}, "displayName": {"text": "\u0645\u0648\u0642\u0641", "languageCode": "en"}, "primaryType": "parking"}, {"id": "ChIJLVyAUQDPwxUR1yNKsfKEzIM", "types": ["parking", "point_of_interest", "establishment"], "formattedAddress": "JCHA7412\u060c 7412\u060c 2838 Al Kurnaysh Br Rd, \u062d\u064a \u0627\u0644\u062d\u0645\u0631\u0627\u0621\u060c Jeddah 23321, Saudi Arabia", "location": {"latitude": 21.532021999999998, "longitude": 39.1582728}, "displayName": {"text": "\u0645\u0648\u0627\u0642\u0641 \u0633\u064a\u0627\u0631\u0627\u062a \u062c\u0627\u0645\u0639 \u0627\u0644\u0639\u0646\u0627\u0646\u064a", "languageCode": "ar"}, "primaryType": "parking"}, {"id": "ChIJ4UZYIADRwxUR3jdie80fVv8", "types": ["parking", "point_of_interest", "establishment"], "formattedAddress": "6973 Al Salsabil, Mishrifah District, 3792, Jeddah 23332, Saudi Arabia", "location": {"latitude": 21.537582699999998, "longitude": 39.1910112}, "displayName": {"text": "\u0628\u064a\u062a \u062a\u0627\u062d\u0648 \u0627\u0644\u0642\u062f\u064a\u0645 (\u0639\u0645\u0627\u0631\u0629)", "languageCode": "fr"}, "primaryType": "parking"}, {"id": "ChIJR_R_cgDPwxURtwo_qgU0lLA", "types": ["parking", "point_of_interest", "establishment"], "formattedAddress": "JCHA6756\u060c 6756 \u0627\u0644\u0627\u0642\u062a\u0635\u0627\u062f\u060c 4285\u060c \u062d\u064a \u0627\u0644\u062d\u0645\u0631\u0627\u0621\u060c Jeddah 23324, Saudi Arabia", "location": {"latitude": 21.530259900000004, "longitude": 39.1750873}, "displayName": {"text": "\u0645\u0648\u0642\u0641 \u0633\u064a\u0627\u0631\u0627\u062a", "languageCode": "ar"}, "primaryType": "parking"}]