[{"id": "ChIJbfqB8QbbwxURPwPmCKURM4c", "types": ["mosque", "place_of_worship", "point_of_interest", "establishment"], "formattedAddress": "3002 Al Kurnaysh Br Rd, \u062d\u064a \u0627\u0644\u0634\u0627\u0637\u0626\u060c 6642\u060c Jeddah 23510, Saudi Arabia", "location": {"latitude": 21.5970681, "longitude": 39.105446}, "rating": 4.6, "userRatingCount": 1678, "displayName": {"text": "Island Mosque", "languageCode": "en"}, "primaryType": "mosque"}, {"id": "ChIJw0lPUkzawxUR4iTnF7zUu7A", "types": ["mosque", "place_of_worship", "point_of_interest", "establishment"], "formattedAddress": "8214\u060c 3115 Zeid Ibn Al Khattab, \u062d\u064a \u0627\u0644\u0634\u0627\u0637\u0626\u060c Jeddah 23514, Saudi Arabia", "location": {"latitude": 21.6100235, "longitude": 39.116032499999996}, "rating": 4.8, "userRatingCount": 604, "displayName": {"text": "Al Ihsan Mosque", "languageCode": "en"}, "primaryType": "mosque"}, {"id": "ChIJKxb1OurawxURUSxFhxpUkNs", "types": ["mosque", "place_of_worship", "point_of_interest", "establishment"], "formattedAddress": "2529 6389 Omar Ibn Bajenid, Al Zahra, Jeddah 23424, Saudi Arabia", "location": {"latitude": 21.5756566, "longitude": 39.12923740000001}, "rating": 4.8, "userRatingCount": 535, "displayName": {"text": "Al-Ghazawi Mosque", "languageCode": "en"}, "primaryType": "mosque"}, {"id": "ChIJFw9jbKPawxURpJWUus9inD0", "types": ["mosque", "place_of_worship", "point_of_interest", "establishment"], "formattedAddress": "2319 Al Kayal, \u062d\u064a \u0627\u0644\u0631\u0648\u0636\u0629\u060c Jeddah 23433, Saudi Arabia", "location": {"latitude": 21.565505400000003, "longitude": 39.1457116}, "rating": 4.7, "userRatingCount": 126, "displayName": {"text": "Hayy Arrawudah", "languageCode": "en"}, "primaryType": "mosque"}, {"id": "ChIJQaztePnbwxURsEjQzlrkMYU", "types": ["mosque", "place_of_worship", "point_of_interest", "establishment"], "formattedAddress": "\u0627\u0644\u0631\u063a\u062f\u0647\u060c\u060c \u0627\u0644\u062e\u0627\u0644\u062f\u064a\u0629\u060c \u062c\u062f\u0629 23423\u060c\u060c Al Khalidiyyah, Jeddah 23423, Saudi Arabia", "location": {"latitude": 21.566274399999998, "longitude": 39.1379503}, "rating": 4.7, "userRatingCount": 47, "displayName": {"text": "\u0645\u0633\u062c\u062f \u0627\u0644\u0639\u0645\u0648\u062f\u064a \u0648 \u0645\u0635\u0644\u0649 \u0627\u0644\u0646\u0633\u0627\u0621", "languageCode": "ar"}, "primaryType": "mosque"}, {"id": "ChIJ7XULnvPawxUR0_lwGM60wOY", "types": ["mosque", "place_of_worship", "point_of_interest", "establishment"], "formattedAddress": "2686 Ahmad Al Attas, \u062d\u064a \u0627\u0644\u0632\u0647\u0631\u0627\u0621\u060c 7688\u060c Jeddah 23425, Saudi Arabia", "location": {"latitude": 21.587355499999997, "longitude": 39.1309347}, "rating": 4.6, "userRatingCount": 1085, "displayName": {"text": "MASJID SHATIE", "languageCode": "en"}, "primaryType": "mosque"}, {"id": "ChIJuUgcZ5_awxURibQeaGjvh0M", "types": ["mosque", "place_of_worship", "point_of_interest", "establishment"], "formattedAddress": "2832 Al Qasim Al Hariri, \u062d\u064a \u0627\u0644\u0631\u0648\u0636\u0629\u060c 8208\u060c Jeddah 23435, Saudi Arabia", "location": {"latitude": 21.568147699999997, "longitude": 39.150849699999995}, "rating": 4.8, "userRatingCount": 471, "displayName": {"text": "Ahmed Ibn Hanbel mosque", "languageCode": "en"}, "primaryType": "mosque"}, {"id": "ChIJe6gz0wLbwxUR9j_ISdHzK4M", "types": ["mosque", "place_of_worship", "point_of_interest", "establishment"], "formattedAddress": "7857 \u063a\u0644\u0627\u0645 \u0627\u0644\u0646\u0648\u0631\u064a - \u062d\u064a - 2552\u060c Ash Shati, Jeddah 23417, Saudi Arabia", "location": {"latitude": 21.5890779, "longitude": 39.1107866}, "rating": 4.8, "userRatingCount": 612, "displayName": {"text": "Abdulaziz Ibn Mohammad", "languageCode": "en"}, "primaryType": "mosque"}, {"id": "ChIJj-3JM3zawxURBvZLbkOl_58", "types": ["mosque", "place_of_worship", "point_of_interest", "establishment"], "formattedAddress": "2518 Ibn Abi Sarh, \u062d\u064a \u0627\u0644\u0633\u0644\u0627\u0645\u0629\u060c 7808\u060c Jeddah 23437, Saudi Arabia", "location": {"latitude": 21.5910165, "longitude": 39.148364799999996}, "rating": 4.5, "userRatingCount": 192, "displayName": {"text": "Hussein Mosque", "languageCode": "en"}, "primaryType": "mosque"}, {"id": "ChIJWdVVQo_awxURymDig5bKx9s", "types": ["mosque", "place_of_worship", "point_of_interest", "establishment"], "formattedAddress": "7294 Abdullah Jasir, \u062d\u064a \u0627\u0644\u0632\u0647\u0631\u0627\u0621\u060c 3955\u060c Jeddah 23424, Saudi Arabia", "location": {"latitude": 21.583835099999998, "longitude": 39.1430906}, "rating": 4.8, "userRatingCount": 541, "displayName": {"text": "HRH Prince Sultan Mosque", "languageCode": "en"}, "primaryType": "mosque"}, {"id": "ChIJ8b7wJ4vawxURypfOqRytovQ", "types": ["mosque", "place_of_worship", "point_of_interest", "establishment"], "formattedAddress": "3036 Sawwad Ibn Ghuzzyah, \u062d\u064a \u0627\u0644\u0632\u0647\u0631\u0627\u0621\u060c 7962\u060c Jeddah 23425, Saudi Arabia", "location": {"latitude": 21.589928, "longitude": 39.1344135}, "rating": 4.8, "userRatingCount": 270, "displayName": {"text": "Abu Dawood Mosque", "languageCode": "en"}, "primaryType": "mosque"}, {"id": "ChIJV8KMUZ7bwxURL6FhyTA91zc", "types": ["mosque", "place_of_worship", "point_of_interest", "establishment"], "formattedAddress": "8206 Musa Al Munqari, 2650, \u0627\u0644\u0634\u0627\u0637\u0626\u060c \u062c\u062f\u0629 23414, Saudi Arabia", "location": {"latitude": 21.5652859, "longitude": 39.1148664}, "rating": 4.9, "userRatingCount": 83, "displayName": {"text": "\u0645\u0633\u062c\u062f \u0632\u0647\u064a\u0631 \u0627\u0644\u0639\u0638\u0645", "languageCode": "en"}, "primaryType": "mosque"}, {"id": "ChIJQ-gThYTawxURqunfQf0xDcI", "types": ["mosque", "place_of_worship", "point_of_interest", "establishment"], "formattedAddress": "As Salamah District,, JESA2551, 2551 \u0627\u0628\u0646 \u0627\u0644\u062a\u0631\u0643\u0645\u0627\u0646\u064a\u060c 6626\u060c \u062d\u064a \u0627\u0644\u0633\u0644\u0627\u0645\u0629\u060c \u062c\u062f\u0629 23436, Saudi Arabia", "location": {"latitude": 21.580426199999998, "longitude": 39.148613499999996}, "rating": 4.7, "userRatingCount": 270, "displayName": {"text": "AlSaadah \u201chappiness\u201d Mosque Masjid", "languageCode": "en"}, "primaryType": "mosque"}, {"id": "ChIJ2z6pW5bawxURqOIZA4EmswU", "types": ["mosque", "place_of_worship", "point_of_interest", "establishment"], "formattedAddress": "8921\u060c 3578 Al Solh, \u062d\u064a \u0627\u0644\u062e\u0627\u0644\u062f\u064a\u0629\u060c Jeddah 23423, Saudi Arabia", "location": {"latitude": 21.5727331, "longitude": 39.1404503}, "rating": 4.8, "userRatingCount": 266, "displayName": {"text": "Al Ruwaished Mosque", "languageCode": "en"}, "primaryType": "mosque"}, {"id": "ChIJM-XYfRzbwxURyffPpwJSPdI", "types": ["mosque", "place_of_worship", "point_of_interest", "establishment"], "formattedAddress": "7650 - \u062d\u064a - 2263\u060c Ash Shati, Jeddah 23417, Saudi Arabia", "location": {"latitude": 21.5872343, "longitude": 39.1078749}, "rating": 4.7, "userRatingCount": 487, "displayName": {"text": "Abdul Qadir Faqih Mosque", "languageCode": "en"}, "primaryType": "mosque"}, {"id": "ChIJ29H7g43awxURoEBqYnFWczI", "types": ["mosque", "place_of_worship", "point_of_interest", "establishment"], "formattedAddress": "3209\u060c 7234 \u0645\u062d\u0645\u062f \u0643\u0627\u0645\u0644 \u0627\u0644\u0642\u064e\u0635\u0627\u0628\u060c \u062d\u064a \u0627\u0644\u0632\u0647\u0631\u0627\u0621\u060c Jeddah 23425, Saudi Arabia", "location": {"latitude": 21.583339799999997, "longitude": 39.1358222}, "rating": 4.9, "userRatingCount": 85, "displayName": {"text": "Hussein Mohamed Arafsha Rahmatullah mosque him", "languageCode": "en"}, "primaryType": "mosque"}, {"id": "ChIJVaS07BTbwxURAZl9VekcFeg", "types": ["mosque", "place_of_worship", "point_of_interest", "establishment"], "formattedAddress": "3233 \u0627\u062d\u0645\u062f \u0627\u0644\u0627\u0633\u0644\u0645\u064a\u060c 6278\u060c \u062d\u064a \u0627\u0644\u0634\u0627\u0637\u0626\u060c\u060c Ash Shati, Jeddah 23415\u060c, Saudi Arabia", "location": {"latitude": 21.5744381, "longitude": 39.1175341}, "rating": 4.9, "userRatingCount": 70, "displayName": {"text": "\u0645\u0633\u062c\u062f \u0627\u0644\u0645\u0644\u0643 \u0633\u0644\u0645\u0627\u0646", "languageCode": "ar"}, "primaryType": "mosque"}, {"id": "ChIJ__-_UbnawxURVIHz2yOFX4M", "types": ["mosque", "place_of_worship", "point_of_interest", "establishment"], "formattedAddress": "H48Q+CF9, Bustan Al Full, Al Khalidiyyah, Jeddah 23423, Saudi Arabia", "location": {"latitude": 21.566047100000002, "longitude": 39.138737299999995}, "rating": 4.8, "userRatingCount": 46, "displayName": {"text": "Mohammed Al Amoudi Grand Mosque Masjid", "languageCode": "en"}, "primaryType": "mosque"}, {"id": "ChIJjacwNoLawxURTX0SPxn3H9E", "types": ["mosque", "place_of_worship", "point_of_interest", "establishment"], "formattedAddress": "As Salamah, Jeddah 23436, Saudi Arabia", "location": {"latitude": 21.581179799999997, "longitude": 39.1522327}, "rating": 4.7, "userRatingCount": 81, "displayName": {"text": "\u0645\u0633\u062c\u062f \u0627\u0644\u062d\u062f\u064a\u0642\u0629", "languageCode": "ar"}, "primaryType": "mosque"}, {"id": "ChIJXbhBtqXawxURMJBw8Wo70gs", "types": ["mosque", "place_of_worship", "point_of_interest", "establishment"], "formattedAddress": "7395\u060c 2511 \u0627\u0633\u0645\u0627\u0639\u064a\u0644 \u062d\u0627\u0641\u0638\u060c \u062d\u064a \u0627\u0644\u0631\u0648\u0636\u0629\u060c Jeddah 23433, Saudi Arabia", "location": {"latitude": 21.5610635, "longitude": 39.147580399999995}, "rating": 4.7, "userRatingCount": 110, "displayName": {"text": "Masjid", "languageCode": "en"}, "primaryType": "mosque"}]