[{"id": "ChIJI-02exbPwxURVjeX2fJb8Uo", "types": ["parking", "point_of_interest", "establishment"], "formattedAddress": "F5JJ+V89, \u0628\u0627\u0639\u0634\u0646\u060c, \u062d\u064a \u0627\u0644\u0628\u0644\u062f, Jeddah 22233, Saudi Arabia", "location": {"latitude": 21.4821699, "longitude": 39.180859100000006}, "rating": 3.8, "userRatingCount": 2520, "displayName": {"text": "SAPTCO bus stop", "languageCode": "en"}, "primaryType": "parking"}, {"id": "ChIJJYwUPT7PwxURIr1a-ZrR4oI", "types": ["parking", "point_of_interest", "establishment"], "formattedAddress": "5222 \u0627\u0644\u0645\u0637\u0627\u0631 JABB5222 6740\u060c\u060c \u062d\u064a \u0627\u0644\u0628\u063a\u062f\u0627\u062f\u064a\u0629 \u0627\u0644\u0634\u0631\u0642\u064a\u0629\u060c Jeddah 22235, Saudi Arabia", "location": {"latitude": 21.4938775, "longitude": 39.190008399999996}, "rating": 3.9, "userRatingCount": 41, "displayName": {"text": "\u0645\u0648\u0627\u0642\u0641 \u0633\u064a\u0627\u0631\u0627\u062a", "languageCode": "ar"}, "primaryType": "parking"}, {"id": "ChIJeaSamI_PwxUR2tefX-RLuFo", "types": ["parking", "point_of_interest", "establishment"], "formattedAddress": "6796\u060c 2748 King Abdul Aziz, \u062d\u064a \u0627\u0644\u0628\u0644\u062f\u060c Jeddah 22233, Saudi Arabia", "location": {"latitude": 21.4836575, "longitude": 39.182094600000006}, "rating": 4.1, "userRatingCount": 323, "displayName": {"text": "Almahmal Parking", "languageCode": "en"}, "primaryType": "parking"}, {"id": "ChIJl1NrOBzPwxURlgA0U8bnZGI", "types": ["parking", "point_of_interest", "establishment"], "formattedAddress": "7112-7054 Setten Rd, Al-Baghdadiyah Al-Sharqiyah, Jeddah 22235, Saudi Arabia", "location": {"latitude": 21.496760899999998, "longitude": 39.194702199999995}, "rating": 3.4, "userRatingCount": 14, "displayName": {"text": "\u0645\u0648\u0627\u0642\u0641 \u062c\u062f\u0629 \u0645\u0643\u0629 \u0627\u0644\u0643\u062f\u0627\u062f\u064a\u0646", "languageCode": "ar"}, "primaryType": "parking"}, {"id": "ChIJiVMSt5jPwxUR0iXRxS9UUWQ", "types": ["parking", "point_of_interest", "establishment"], "formattedAddress": "F5JP+CWW, Al-Balad, Jeddah 22233, Saudi Arabia", "location": {"latitude": 21.4811232, "longitude": 39.187325}, "rating": 3.8, "userRatingCount": 4, "displayName": {"text": "Jiddah Nakal jamai", "languageCode": "en"}, "primaryType": "parking"}, {"id": "ChIJP7CODhHPwxURG-9AnVSE0GU", "types": ["parking", "point_of_interest", "establishment"], "formattedAddress": "\u0645\u0648\u0642\u0641 \u0633\u064a\u0627\u0631\u0627\u062a, Al-Balad, Jeddah 22233, Saudi Arabia", "location": {"latitude": 21.4818882, "longitude": 39.1829742}, "rating": 3.7, "userRatingCount": 173, "displayName": {"text": "\u0645\u0648\u0627\u0642\u0641 \u0645\u0631\u0643\u0632 \u0627\u0644\u0643\u0648\u0631\u0646\u064a\u0634 \u0645\u062f\u0641\u0648\u0639\u0629", "languageCode": "ar"}, "primaryType": "parking"}, {"id": "ChIJhwNhjxDPwxURK6wT3zuezg8", "types": ["parking", "point_of_interest", "establishment"], "formattedAddress": "Al Balad District, 2950\u060c \u062d\u064a \u0627\u0644\u0628\u0644\u062f\u060c \u062c\u062f\u0629 22233, Saudi Arabia", "location": {"latitude": 21.485921599999998, "longitude": 39.1849122}, "rating": 3.4, "userRatingCount": 18, "displayName": {"text": "Parking", "languageCode": "en"}, "primaryType": "parking"}, {"id": "ChIJtziKhcnRwxURcufNjVF8Igk", "types": ["parking", "point_of_interest", "establishment"], "formattedAddress": "Al Aziziyah District, Prince Majid Rd \u0627\u0644\u0623\u0645\u064a\u0631 \u0645\u0627\u062c\u062f\u060c 8498\u060c \u062d\u064a \u0627\u0644\u0639\u0632\u064a\u0632\u064a\u0629\u060c \u062c\u062f\u0629 23338, Saudi Arabia", "location": {"latitude": 21.5518873, "longitude": 39.2015932}, "rating": 4.2, "userRatingCount": 28, "displayName": {"text": "flamingo mall car parking", "languageCode": "en"}, "primaryType": "parking"}, {"id": "ChIJb-qYvL_RwxUR-qSPf9vyLsc", "types": ["parking", "point_of_interest", "establishment"], "formattedAddress": "7889 Prince Mutaib bin Abdulaziz Rd, Al-Rehab, Jeddah 23344, Saudi Arabia", "location": {"latitude": 21.551246499999998, "longitude": 39.214867399999996}, "rating": 4.1, "userRatingCount": 21, "displayName": {"text": "Parking Danube", "languageCode": "en"}, "primaryType": "parking"}, {"id": "ChIJy0jgPrbRwxURbo17mJ333Vs", "types": ["parking", "point_of_interest", "establishment"], "formattedAddress": "6762\u060c 3616 Prince Mutaib bin Abdulaziz Rd, \u062d\u064a \u0627\u0644\u0645\u0631\u0648\u0629\u060c Jeddah 23541, Saudi Arabia", "location": {"latitude": 21.606685000000002, "longitude": 39.1977194}, "rating": 4.4, "userRatingCount": 17, "displayName": {"text": "\u0645\u062d\u0637\u0629 \u0633\u0627\u0628\u062a\u0643\u0648 \u0645\u062d\u0645\u062f \u0627\u0644\u0633\u0628\u064a\u0639\u064a", "languageCode": "ar"}, "primaryType": "parking"}, {"id": "ChIJqfvebnPPwxURLV4ip1h24HA", "types": ["parking", "point_of_interest", "establishment"], "formattedAddress": "Banias, Al-Baghdadiyah Al-Gharbiyah, Jeddah 22235, Saudi Arabia", "location": {"latitude": 21.4974621, "longitude": 39.183940899999996}, "rating": 1.3, "userRatingCount": 79, "displayName": {"text": "\u062d\u062c\u0632 \u0627\u0644\u0645\u0648\u0627\u0642\u0641 \u0627\u0644\u0648\u0637\u0646\u064a\u0629 \u062d\u064a \u0627\u0644\u0628\u063a\u062f\u0627\u062f\u064a\u0647", "languageCode": "ar"}, "primaryType": "parking"}, {"id": "ChIJS0P7OPnNwxURBrrxlyLuVMU", "types": ["parking", "point_of_interest", "establishment"], "formattedAddress": "7018 - \u062d\u064a - 4656\u060c An Naseem, Jeddah 23236, Saudi Arabia", "location": {"latitude": 21.518320199999998, "longitude": 39.244044699999996}, "rating": 3.9, "userRatingCount": 39, "displayName": {"text": "North Parking Building", "languageCode": "en"}, "primaryType": "parking"}, {"id": "ChIJUZRUg93PwxURR6_LKErlR3E", "types": ["parking", "point_of_interest", "establishment"], "formattedAddress": "F5XP+M2V, Al-Baghdadiyah Al-Sharqiyah, Jeddah 22235, Saudi Arabia", "location": {"latitude": 21.4992353, "longitude": 39.1850507}, "rating": 4.7, "userRatingCount": 3, "displayName": {"text": "Baghdadiyah", "languageCode": "en"}, "primaryType": "parking"}, {"id": "ChIJ0yOAmEbPwxUR4_dXOb8m_S0", "types": ["parking", "point_of_interest", "establishment"], "formattedAddress": "6963 \u0627\u0644\u0645\u0644\u0643 \u0639\u0628\u062f\u0627\u0644\u0639\u0632\u064a\u0632 JACC6963 2865\u060c \u062d\u064a \u0627\u0644\u0628\u0644\u062f\u060c Jeddah 22233, Saudi Arabia", "location": {"latitude": 21.4853493, "longitude": 39.1841225}, "rating": 3.8, "userRatingCount": 5, "displayName": {"text": "\u0645\u0648\u0627\u0642\u0641 \u0633\u064a\u0627\u0631\u0627\u062a5 \u0631\u064a\u0627\u0644", "languageCode": "ar"}, "primaryType": "parking"}, {"id": "ChIJFRFMoO7PwxURrHjorCxQdeo", "types": ["parking", "point_of_interest", "establishment"], "formattedAddress": "6398, 4245 \u062d\u0627\u0626\u0644\u060c Al Baghdadiyah Al Gharbiyah District, \u062c\u062f\u0629 22232, Saudi Arabia", "location": {"latitude": 21.4901825, "longitude": 39.180243499999996}, "rating": 5, "userRatingCount": 1, "displayName": {"text": "New SNB staff parking", "languageCode": "en"}, "primaryType": "parking"}, {"id": "ChIJT-njmCnPwxURpZzYMfJHuzY", "types": ["parking", "point_of_interest", "establishment"], "formattedAddress": "3315 \u0627\u0644\u0628\u0644\u0642\u064a\u0646\u064a JACA3315\u060c 7422\u060c \u062d\u064a \u0627\u0644\u0628\u0644\u062f\u060c Jeddah 22236, Saudi Arabia", "location": {"latitude": 21.4894954, "longitude": 39.188482799999996}, "rating": 3.5, "userRatingCount": 4, "displayName": {"text": "\u0645\u0648\u0642\u0641 \u0633\u064a\u0627\u0631\u0627\u062a", "languageCode": "ar"}, "primaryType": "parking"}, {"id": "ChIJTU9LNgDPwxUR38fm_pIyigU", "types": ["parking", "point_of_interest", "establishment"], "formattedAddress": "2323 Hamzah Shehatah, Al-Baghdadiyah Al-Gharbiyah, Jeddah 22223, Saudi Arabia", "location": {"latitude": 21.4932345, "longitude": 39.181597599999996}, "rating": 4.6, "userRatingCount": 13, "displayName": {"text": "TeamLab Borderless Museum parking - \u0645\u0648\u0627\u0642\u0641 \u0645\u062a\u062d\u0641 \u062a\u064a\u0645 \u0644\u0627\u0628 \u0628\u0644\u0627 \u062d\u062f\u0648\u062f", "languageCode": "en"}, "primaryType": "parking"}, {"id": "ChIJo3YK9nbPwxURWIgelUk6S48", "types": ["parking", "point_of_interest", "establishment"], "formattedAddress": "2929\u060c \u062d\u064a\u060c 7555 Al Amanah Rd, Al-Baghdadiyah Al-Gharbiyah, Jeddah 22231, Saudi Arabia", "location": {"latitude": 21.501043799999998, "longitude": 39.16851030000001}, "rating": 3.8, "userRatingCount": 23, "displayName": {"text": "Jeddah Municipality Car Parking", "languageCode": "en"}, "primaryType": "parking"}, {"id": "ChIJj6_FNirRwxURv7eLCtrcuSE", "types": ["parking", "point_of_interest", "establishment"], "formattedAddress": "J56X+572, Al Marwah, Jeddah 23541, Saudi Arabia", "location": {"latitude": 21.6103818, "longitude": 39.1981378}, "rating": 4.6, "userRatingCount": 29, "displayName": {"text": "Parking of Hyper Panda", "languageCode": "en"}, "primaryType": "parking"}, {"id": "ChIJp2YAmbfRwxURahixWfPLysw", "types": ["parking", "point_of_interest", "establishment"], "formattedAddress": "H69G+3C, Al-Safa, Jeddah 23453, Saudi Arabia", "location": {"latitude": 21.5676716, "longitude": 39.2260851}, "rating": 4.6, "userRatingCount": 8, "displayName": {"text": "\u0645\u0648\u0627\u0642\u0641 \u0627\u0644\u062f\u0627\u0646\u0648\u0628", "languageCode": "ar"}, "primaryType": "parking"}]