[{"id": "ChIJQ5C1iwXPwxURLDFZFsWfTvY", "types": ["mosque", "tourist_attraction", "place_of_worship", "point_of_interest", "establishment"], "formattedAddress": "6678 \u062d\u064a\u060c F5VP+272\u060c 4787 Al-Madinah Al-Munawarah Rd, Al-Baghdadiyah Al-Gharbiyah, Jeddah 22235, Saudi Arabia", "location": {"latitude": 21.4925396, "longitude": 39.1856937}, "rating": 4.7, "userRatingCount": 5566, "displayName": {"text": "Jaffali Mosque", "languageCode": "en"}, "primaryType": "mosque"}, {"id": "ChIJF2L9NRTPwxURwSTZDgTeaIg", "types": ["mosque", "place_of_worship", "point_of_interest", "establishment"], "formattedAddress": "6649 \u0627\u0644\u0628\u0646\u0643 - \u062d\u064a - 3602\u060c Al-Balad, Jeddah 22238, Saudi Arabia", "location": {"latitude": 21.4825672, "longitude": 39.191289999999995}, "rating": 4.7, "userRatingCount": 223, "displayName": {"text": "\u0645\u0633\u062c\u062f \u0628\u0646 \u0645\u062d\u0641\u0648\u0638 - \u0627\u0644\u0628\u0644\u062f", "languageCode": "ar"}, "primaryType": "mosque"}, {"id": "ChIJUxci5PHOwxUR_gVdMo7W9R0", "types": ["mosque", "place_of_worship", "point_of_interest", "establishment"], "formattedAddress": "\u062d\u064a, 8863 Zahrat Al Bashnin, 3245, Al-Nazlah Al-Yamaniyah, Jeddah 22332, Saudi Arabia", "location": {"latitude": 21.4821372, "longitude": 39.2102205}, "rating": 4.4, "userRatingCount": 227, "displayName": {"text": "\u0645\u0633\u062c\u062f \u0639\u0645\u0627\u0626\u0631 \u0627\u0644\u0631\u0627\u062c\u062d\u064a", "languageCode": "ar"}, "primaryType": "mosque"}, {"id": "ChIJdbQ68BrPwxURXPbE10urBcQ", "types": ["mosque", "place_of_worship", "point_of_interest", "establishment"], "formattedAddress": "3214 Suq Al Jami, Al-Balad, 7054\u060c Jeddah 22236, Saudi Arabia", "location": {"latitude": 21.4861476, "longitude": 39.1874695}, "rating": 4.8, "userRatingCount": 393, "displayName": {"text": "Shafei Mosque Historical", "languageCode": "en"}, "primaryType": "mosque"}, {"id": "ChIJ3WPVEBrPwxURxPNL1fa8rPs", "types": ["mosque", "tourist_attraction", "place_of_worship", "point_of_interest", "establishment"], "formattedAddress": "\u062d\u064a \u0627\u0644\u0628\u0644\u062f\u060c\u060c 3131 Souq Al Alawi, Al Balad District, Jeddah 22236, Saudi Arabia", "location": {"latitude": 21.484351099999998, "longitude": 39.1865966}, "rating": 4.7, "userRatingCount": 417, "displayName": {"text": "Al Ma'amar Mosque", "languageCode": "en"}, "primaryType": "mosque"}, {"id": "ChIJ0WTex73PwxURxHUJ1pyIwZQ", "types": ["mosque", "place_of_worship", "point_of_interest", "establishment"], "formattedAddress": "6933\u060c 4546 \u0639\u0628\u062f\u0631\u0628\u0647\u060c \u062d\u064a \u0627\u0644\u0631\u0648\u064a\u0633\u060c Jeddah 23214, Saudi Arabia", "location": {"latitude": 21.5146572, "longitude": 39.177148599999995}, "rating": 4.7, "userRatingCount": 355, "displayName": {"text": "Mosque of Sheikh Faisal bin Mohammed Al Mubarak", "languageCode": "en"}, "primaryType": "mosque"}, {"id": "ChIJkRatUQPPwxURrD56tsG_lXo", "types": ["mosque", "place_of_worship", "point_of_interest", "establishment"], "formattedAddress": "3609\u060c 7206 \u0627\u0647\u0644 \u0627\u0644\u062a\u0631\u062d\u0627\u0628\u060c \u062d\u064a \u0627\u0644\u0635\u062d\u064a\u0641\u0629\u060c Jeddah 22237, Saudi Arabia", "location": {"latitude": 21.4874551, "longitude": 39.1913836}, "rating": 4.7, "userRatingCount": 246, "displayName": {"text": "King Abdulaziz Grand Mosque", "languageCode": "en"}, "primaryType": "mosque"}, {"id": "ChIJAQTx-DrPwxURJQGrYsXWO-k", "types": ["mosque", "place_of_worship", "point_of_interest", "establishment"], "formattedAddress": "3716 \u062d\u0631\u0636 - \u062d\u064a - 7034\u060c Al-Baghdadiyah Al-Gharbiyah, Jeddah 22231, Saudi Arabia", "location": {"latitude": 21.4959, "longitude": 39.175179199999995}, "rating": 4.8, "userRatingCount": 195, "displayName": {"text": "Abu Bakr Al-Siddiq Mosque, may God be pleased with him", "languageCode": "en"}, "primaryType": "mosque"}, {"id": "ChIJqxFESprPwxUR6ESCtqArjfI", "types": ["mosque", "place_of_worship", "point_of_interest", "establishment"], "formattedAddress": "Hael, Al-Ruwais, Jeddah 23214, Saudi Arabia", "location": {"latitude": 21.5136759, "longitude": 39.174730499999995}, "rating": 4.7, "userRatingCount": 344, "displayName": {"text": "IMC Mosque", "languageCode": "en"}, "primaryType": "mosque"}, {"id": "ChIJtaKjYMHPwxUROIFlCEgn230", "types": ["mosque", "place_of_worship", "point_of_interest", "establishment"], "formattedAddress": "3338 Al Ouqsour, \u062d\u064a \u0627\u0644\u0631\u0648\u064a\u0633\u060c 6831\u060c Jeddah 23211, Saudi Arabia", "location": {"latitude": 21.513887999999998, "longitude": 39.165242899999996}, "rating": 4.8, "userRatingCount": 78, "displayName": {"text": "Sayeda Zainab Mosque", "languageCode": "en"}, "primaryType": "mosque"}, {"id": "ChIJQ0QWsw3PwxUR5YodaSUFwpo", "types": ["mosque", "place_of_worship", "point_of_interest", "establishment"], "formattedAddress": "F5VH+5GV, Al-Baghdadiyah Al-Gharbiyah, Jeddah 22232, Saudi Arabia", "location": {"latitude": 21.4929953, "longitude": 39.1787929}, "rating": 4.6, "userRatingCount": 210, "displayName": {"text": "Sarah Mosque", "languageCode": "en"}, "primaryType": "mosque"}, {"id": "ChIJybqe9QXPwxUR6UV0JVyyimU", "types": ["mosque", "place_of_worship", "point_of_interest", "establishment"], "formattedAddress": "4787 Al-Madinah Al-Munawarah Rd, Al-Baghdadiyah Al-Gharbiyah, Jeddah 22235, Saudi Arabia", "location": {"latitude": 21.4925051, "longitude": 39.1856377}, "rating": 4.7, "userRatingCount": 279, "displayName": {"text": "Masjid Qishos", "languageCode": "en"}, "primaryType": "mosque"}, {"id": "ChIJWaNcAYPPwxUR6DiCV1RJiVQ", "types": ["mosque", "place_of_worship", "point_of_interest", "establishment"], "formattedAddress": "6166\u060c 3034 Al Kurnaysh Br Rd, Al-Ruwais, Jeddah 23211, Saudi Arabia", "location": {"latitude": 21.5077517, "longitude": 39.162480699999996}, "rating": 4.4, "userRatingCount": 62, "displayName": {"text": "Al Juri", "languageCode": "en"}, "primaryType": "mosque"}, {"id": "ChIJ1RriiQPPwxUROik4L2PsNWg", "types": ["mosque", "place_of_worship", "point_of_interest", "establishment"], "formattedAddress": "7579 Wadi Shabhanah, Al-Ammariyah, Jeddah 22237, Saudi Arabia", "location": {"latitude": 21.4906146, "longitude": 39.1904392}, "rating": 4.6, "userRatingCount": 81, "displayName": {"text": "Amari Mosque", "languageCode": "en"}, "primaryType": "mosque"}, {"id": "ChIJScnGyRnPwxURjJaCY0tdJbE", "types": ["mosque", "place_of_worship", "point_of_interest", "establishment"], "formattedAddress": "3154 \u0628\u0627\u0646\u0627\u062c\u0629\u060c \u062d\u064a \u0627\u0644\u0628\u0644\u062f\u060c \u062c\u062f\u0629 22233 6505 Banajah, Al Balad District, Jeddah 22233, Saudi Arabia", "location": {"latitude": 21.4812328, "longitude": 39.1868069}, "rating": 4.6, "userRatingCount": 100, "displayName": {"text": "Aqaili mosque", "languageCode": "en"}, "primaryType": "mosque"}, {"id": "ChIJpZYABIPPwxURKJP9cO8XAG8", "types": ["mosque", "place_of_worship", "point_of_interest", "establishment"], "formattedAddress": "2647\u060c 6745 Al Kurnaysh Br Rd, \u062d\u064a \u0627\u0644\u062d\u0645\u0631\u0627\u0621\u060c Jeddah 23212, Saudi Arabia", "location": {"latitude": 21.512979899999998, "longitude": 39.1587357}, "rating": 4.5, "userRatingCount": 125, "displayName": {"text": "Masjid Al Faroosa", "languageCode": "en"}, "primaryType": "mosque"}, {"id": "ChIJMZ8nAAzPwxUR6YyFD1OWYOY", "types": ["mosque", "place_of_worship", "point_of_interest", "establishment"], "formattedAddress": "4245 \u0627\u0644\u0639\u0644\u0627 - \u062d\u064a - 6929\u060c Al-Baghdadiyah Al-Gharbiyah, Jeddah 22232, Saudi Arabia", "location": {"latitude": 21.4949489, "longitude": 39.1802833}, "rating": 4.7, "userRatingCount": 229, "displayName": {"text": "Masjed Yarmouk", "languageCode": "en"}, "primaryType": "mosque"}, {"id": "ChIJrbXpmqjPwxURBxeJ-rBbFFk", "types": ["mosque", "place_of_worship", "point_of_interest", "establishment"], "formattedAddress": "Al Baghdadiyah Ash Sharqiyah District,, JABB7668, 7668 \u0627\u0644\u0631\u0648\u064a\u0636\u0627\u062a\u060c 4838\u060c \u062d\u064a \u0627\u0644\u0628\u063a\u062f\u0627\u062f\u064a\u0629 \u0627\u0644\u0634\u0631\u0642\u064a\u0629\u060c \u062c\u062f\u0629 22235, Saudi Arabia", "location": {"latitude": 21.5015896, "longitude": 39.1859958}, "rating": 4.7, "userRatingCount": 198, "displayName": {"text": "Masjid Marzoq Alreyhan", "languageCode": "en"}, "primaryType": "mosque"}, {"id": "ChIJNeLr_PjPwxUR09m1vuXMmR8", "types": ["mosque", "place_of_worship", "point_of_interest", "establishment"], "formattedAddress": "8094\u060c 3082 Al Andalus Rd, \u062d\u064a \u0627\u0644\u0631\u0648\u064a\u0633\u060c Jeddah 22231, Saudi Arabia", "location": {"latitude": 21.506339999999998, "longitude": 39.1692933}, "rating": 4.7, "userRatingCount": 79, "displayName": {"text": "Shareef Ahmad AlFier Grand Mosque", "languageCode": "en"}, "primaryType": "mosque"}, {"id": "ChIJDweXAZrPwxURud52wHteqDk", "types": ["mosque", "place_of_worship", "point_of_interest", "establishment"], "formattedAddress": "3798 Faid Ar Rahmah, \u062d\u064a \u0627\u0644\u0631\u0648\u064a\u0633\u060c 6706\u060c Jeddah 23213, Saudi Arabia", "location": {"latitude": 21.5126231, "longitude": 39.169859699999996}, "rating": 4.7, "userRatingCount": 115, "displayName": {"text": "Mosque of Zu Nurin", "languageCode": "en"}, "primaryType": "mosque"}]