[{"id": "ChIJsTtg-63bwxUR5r6yRc0GYAs", "types": ["parking", "point_of_interest", "establishment"], "formattedAddress": "J455+M3G, Ash Shati, Jeddah 23510, Saudi Arabia", "location": {"latitude": 21.6091925, "longitude": 39.1076897}, "rating": 4.7, "userRatingCount": 26, "displayName": {"text": "Parking", "languageCode": "en"}, "primaryType": "parking"}, {"id": "ChIJQ037VvLbwxURZxeYnKKgpaA", "types": ["parking", "point_of_interest", "establishment"], "formattedAddress": "7846\u060c 2189 Al Kurnaysh Br Rd, \u062d\u064a \u0627\u0644\u0634\u0627\u0637\u0626\u060c Jeddah 23417, Saudi Arabia", "location": {"latitude": 21.588787699999997, "longitude": 39.1067734}, "rating": 4.5, "userRatingCount": 2, "displayName": {"text": "\u0628\u0627\u0631\u0643\u0646\u0642 \u0627\u0644\u0648\u062f\u0639\u0629", "languageCode": "ar"}, "primaryType": "parking"}, {"id": "ChIJOU9m1r7bwxURmE1GE16bedY", "types": ["parking", "point_of_interest", "establishment"], "formattedAddress": "7555 \u0637\u0631\u064a\u0642 \u0627\u0644\u0645\u0644\u0643 \u0639\u0628\u062f\u0627\u0644\u0639\u0632\u064a\u0632\u060c \u062d\u064a 2396\u060c 2396, Al Zahra, Jeddah 23522, Saudi Arabia", "location": {"latitude": 21.604464999999998, "longitude": 39.1217889}, "rating": 4.1, "userRatingCount": 8, "displayName": {"text": "\u0645\u0648\u0627\u0642\u0641 \u0628\u0646\u062f\u0629", "languageCode": "ar"}, "primaryType": "parking"}, {"id": "ChIJiRyZ7sPbwxUR34hDCr2rVog", "types": ["parking", "point_of_interest", "establishment"], "formattedAddress": "6877 \u0637\u0631\u064a\u0642 \u0627\u0644\u0643\u0648\u0631\u0646\u064a\u0634\u060c 2534\u060c \u062d\u064a \u0627\u0644\u0634\u0627\u0637\u0626\u060c\u060c Ash Shati, Jeddah 23415\u060c, Saudi Arabia", "location": {"latitude": 21.5806273, "longitude": 39.1095676}, "rating": 5, "userRatingCount": 4, "displayName": {"text": "\u0645\u0648\u0627\u0642\u0641 \u0633\u064a\u0627\u0631\u0627\u062a", "languageCode": "ar"}, "primaryType": "parking"}, {"id": "ChIJad08OGjbwxUR5qdbAfSfttM", "types": ["parking", "point_of_interest", "establishment"], "formattedAddress": "2327\u060c 6921 \u062d\u064a \u0627\u0644\u062e\u0627\u0644\u062f\u064a\u0629\u060c Al Khalidiyyah, Jeddah 23421, Saudi Arabia", "location": {"latitude": 21.5545694, "longitude": 39.136156799999995}, "rating": 5, "userRatingCount": 2, "displayName": {"text": "\u0627\u0644\u0633\u0639\u0648\u062f\u064a\u0647 \u0633\u062a\u064a", "languageCode": "ar"}, "primaryType": "parking"}, {"id": "ChIJNZMOlcDFwxURvjJeKkzBbRI", "types": ["parking", "point_of_interest", "establishment"], "formattedAddress": "3588 \u0623\u0648\u0633 \u0628\u0646 \u0639\u0648\u0641\u060c \u062d\u064a \u0627\u0644\u0634\u0627\u0637\u0626\u060c Jeddah 23411 7050, \u0627\u0644\u0634\u0627\u0637\u0626\u060c \u062c\u062f\u0629 23411, Saudi Arabia", "location": {"latitude": 21.554773299999997, "longitude": 39.124081}, "rating": 2.9, "userRatingCount": 8, "displayName": {"text": "Parking - Sameer Abbas hospital", "languageCode": "en"}, "primaryType": "parking"}, {"id": "ChIJeXAZK1fbwxURgENRmmDe-AA", "types": ["parking", "point_of_interest", "establishment"], "formattedAddress": "H4J5+4J8, Al Kurnaysh Br Rd, Ash Shati, Jeddah 23417, Saudi Arabia", "location": {"latitude": 21.580278999999997, "longitude": 39.1090653}, "rating": 5, "userRatingCount": 2, "displayName": {"text": "North cornech", "languageCode": "en"}, "primaryType": "parking"}, {"id": "ChIJd9nP5FrbwxURsRe3Y7EOLwY", "types": ["parking", "point_of_interest", "establishment"], "formattedAddress": "JEZB7955\u060c 7955\u060c 3454 Saad Ibn Dhuayb, \u062d\u064a \u0627\u0644\u0632\u0647\u0631\u0627\u0621\u060c Jeddah 23425, Saudi Arabia", "location": {"latitude": 21.589839599999998, "longitude": 39.1382474}, "rating": 5, "userRatingCount": 1, "displayName": {"text": "\u0645\u0648\u0627\u0642\u0641 \u0644\u0644\u0633\u064a\u0627\u0631\u0627\u062a", "languageCode": "ar"}, "primaryType": "parking"}, {"id": "ChIJUb-qBBjbwxURjEXd118bUio", "types": ["parking", "point_of_interest", "establishment"], "formattedAddress": "7280 \u0627\u0644\u0627\u0645\u064a\u0631 \u0641\u064a\u0635\u0644 \u0628\u0646 \u0641\u0647\u062f\u060c \u062d\u064a \u0627\u0644\u0634\u0627\u0637\u0626\u060c \u062c\u062f\u0629 23511 2482\u060c\u060c Ash Shati, Jeddah 23511, Saudi Arabia", "location": {"latitude": 21.602359, "longitude": 39.110202}, "rating": 4.8, "userRatingCount": 6, "displayName": {"text": "Mawqifak HQ parking \u0645\u0648\u0627\u0642\u0641 \u0628\u0631\u062c \u0627\u0644\u0623\u0639\u0645\u0627\u0644", "languageCode": "ar"}, "primaryType": "parking"}, {"id": "ChIJtf5CSmfawxURGe6SyoexDbs", "types": ["parking", "point_of_interest", "establishment"], "formattedAddress": "6690 Souweid Ibn Houbairah, 3675, AZ Zahra District, Jeddah 23521, Saudi Arabia", "location": {"latitude": 21.597333, "longitude": 39.1344642}, "rating": 3.3, "userRatingCount": 4, "displayName": {"text": "Multistorey Car Parking SGH", "languageCode": "en"}, "primaryType": "parking"}, {"id": "ChIJCWkDRQnbwxUR48rf_Ow-U1Q", "types": ["parking", "point_of_interest", "establishment"], "formattedAddress": "H4JV+PJ5, As Salamah, Jeddah 23436, Saudi Arabia", "location": {"latitude": 21.581774000000003, "longitude": 39.1441047}, "rating": 5, "userRatingCount": 1, "displayName": {"text": "PARKING", "languageCode": "ar"}, "primaryType": "parking"}, {"id": "ChIJ-8ZEDrzbwxURHWuigtDIgyI", "types": ["parking", "point_of_interest", "establishment"], "formattedAddress": "St Vision Tower, Prince Sultan, Ar Rawdah, Jeddah 23433, Saudi Arabia", "location": {"latitude": 21.5658109, "longitude": 39.143446499999996}, "rating": 3.1, "userRatingCount": 16, "displayName": {"text": "Arsann Operations Company", "languageCode": "en"}, "primaryType": "parking"}, {"id": "ChIJaeRJXQDbwxURUx0anrLSsfo", "types": ["parking", "point_of_interest", "establishment"], "formattedAddress": "H46M+4W2, Al Khalidiyyah, Jeddah 23423, Saudi Arabia", "location": {"latitude": 21.5602521, "longitude": 39.1347622}, "displayName": {"text": "\u0645\u0648\u0627\u0642\u0641 \u0633\u064a\u0627\u0631\u0627\u062a \u0627\u0644\u062f\u0627\u0646\u0648\u0628", "languageCode": "ar"}, "primaryType": "parking"}, {"id": "ChIJUfIx3EvbwxUR4DQyC5t9g0A", "types": ["parking", "point_of_interest", "establishment"], "formattedAddress": "H4MR+FWW, Al Zahra, Jeddah 23424, Saudi Arabia", "location": {"latitude": 21.583734699999997, "longitude": 39.1423371}, "rating": 4, "userRatingCount": 5, "displayName": {"text": "\u0645\u0648\u0627\u0642\u0641 \u0633\u064a\u0627\u0631\u0627\u062a \u0645\u0633\u062c\u062f", "languageCode": "ar"}, "primaryType": "parking"}, {"id": "ChIJWRTUfJHbwxURwVuc6Ej5J3g", "types": ["parking", "point_of_interest", "establishment"], "formattedAddress": "7355 2432 \u0637\u0631\u064a\u0642 \u0627\u0644\u0643\u0648\u0631\u0646\u064a\u0634\u060c\u060c Ash Shati, Jeddah 23511, Saudi Arabia", "location": {"latitude": 21.602791099999997, "longitude": 39.1080766}, "rating": 3.4, "userRatingCount": 5, "displayName": {"text": "\u0645\u0648\u0627\u0642\u0641 \u0628\u0631\u062c \u0627\u0644\u0623\u0639\u0645\u0627\u0644 mawqifak", "languageCode": "ar"}, "primaryType": "parking"}, {"id": "ChIJlzq_4CfbwxUR9BUOBqiNEcc", "types": ["parking", "point_of_interest", "establishment"], "formattedAddress": "H496+MJ2, Al Shallal Theme Park, Ash Shati, Jeddah 23413, Saudi Arabia", "location": {"latitude": 21.5691339, "longitude": 39.1115078}, "rating": 3, "userRatingCount": 5, "displayName": {"text": "car park", "languageCode": "en"}, "primaryType": "parking"}, {"id": "ChIJz6mTY8_awxURoSYI1w6Pe1k", "types": ["parking", "point_of_interest", "establishment"], "formattedAddress": "H48G+6W8, King Abdulaziz Branch Rd, Al Khalidiyyah, Jeddah 23422, Saudi Arabia", "location": {"latitude": 21.5655277, "longitude": 39.1273361}, "rating": 4.7, "userRatingCount": 3, "displayName": {"text": "Leylaty Parking", "languageCode": "en"}, "primaryType": "parking"}, {"id": "ChIJH7l02YHbwxURSY3rBfgcTw0", "types": ["parking", "point_of_interest", "establishment"], "formattedAddress": "Al Kurnaysh Br Rd, Ash Shati, Jeddah 23511, Saudi Arabia", "location": {"latitude": 21.6021671, "longitude": 39.1089731}, "rating": 5, "userRatingCount": 1, "displayName": {"text": "Valet vip service", "languageCode": "en"}, "primaryType": "parking"}, {"id": "ChIJAQAAS2fawxUR9ZTcnTJtnNE", "types": ["parking", "point_of_interest", "establishment"], "formattedAddress": "H4WM+XV8, Al Batarji Branch, Al Zahra, Jeddah 23521, Saudi Arabia", "location": {"latitude": 21.597413000000003, "longitude": 39.1346932}, "rating": 2, "userRatingCount": 3, "displayName": {"text": "Parking lot", "languageCode": "en"}, "primaryType": "parking"}, {"id": "ChIJlfzIM1nbwxURlz27bkPycXY", "types": ["parking", "point_of_interest", "establishment"], "formattedAddress": "H45X+WH4, Ar Rawdah, Jeddah 23433, Saudi Arabia", "location": {"latitude": 21.5597721, "longitude": 39.1489651}, "rating": 3.7, "userRatingCount": 3, "displayName": {"text": "Parking 2", "languageCode": "en"}, "primaryType": "parking"}]