[{"id": "ChIJ2TjNHUjOwxURNrHCtIZflDA", "types": ["mosque", "place_of_worship", "point_of_interest", "establishment"], "formattedAddress": "3348 \u0633\u0647\u0644 \u0628\u0646 \u062d\u0646\u064a\u0641\u060c Al Warood, 6430\u060c Jeddah 23221, Saudi Arabia", "location": {"latitude": 21.5128919, "longitude": 39.205550599999995}, "rating": 4.8, "userRatingCount": 2588, "displayName": {"text": "Bin Yamani Mosque", "languageCode": "en"}, "primaryType": "mosque"}, {"id": "ChIJg_JH_g_OwxURtKmqdiGRW-M", "types": ["mosque", "place_of_worship", "point_of_interest", "establishment"], "formattedAddress": "6810 Al Aqraa Ibn Abdallah, 2962, An Naseem, 2962\u060c Jeddah 23233, Saudi Arabia", "location": {"latitude": 21.516484100000003, "longitude": 39.227101999999995}, "rating": 4.8, "userRatingCount": 2779, "displayName": {"text": "Khadija Baghlaf Mosque", "languageCode": "en"}, "primaryType": "mosque"}, {"id": "ChIJ-a8FGerRwxURD23iBzE_mz4", "types": ["mosque", "place_of_worship", "point_of_interest", "establishment"], "formattedAddress": "7083\u060c 3632 Al Jafidah, \u062d\u064a \u0627\u0644\u0631\u062d\u0627\u0628\u060c Jeddah 23343, Saudi Arabia", "location": {"latitude": 21.5445191, "longitude": 39.2178172}, "rating": 4.7, "userRatingCount": 1476, "displayName": {"text": "Palestine Mosque", "languageCode": "en"}, "primaryType": "mosque"}, {"id": "ChIJC3p1gorOwxURwYYkXP15WmY", "types": ["mosque", "place_of_worship", "point_of_interest", "establishment"], "formattedAddress": "F6Q9+PH8, Al Fayha'a, Jeddah 22246, Saudi Arabia", "location": {"latitude": 21.489281599999998, "longitude": 39.218949099999996}, "rating": 4.7, "userRatingCount": 689, "displayName": {"text": "Um Abdul Rahman Mosque", "languageCode": "en"}, "primaryType": "mosque"}, {"id": "ChIJFVxUJvPRwxURifFoBmNq2A8", "types": ["mosque", "place_of_worship", "point_of_interest", "establishment"], "formattedAddress": "7135\u060c 4878 \u0627\u0644\u0634\u064a\u062e \u0645\u062d\u0645\u062f \u0628\u0646 \u062c\u0628\u064a\u0631\u060c \u062d\u064a \u0627\u0644\u0631\u062d\u0627\u0628\u060c Jeddah 23343, Saudi Arabia", "location": {"latitude": 21.5450671, "longitude": 39.229838400000006}, "rating": 4.8, "userRatingCount": 934, "displayName": {"text": "Al Sudais Mosque", "languageCode": "en"}, "primaryType": "mosque"}, {"id": "ChIJ44bsXQjOwxUROXeUHoQjkAI", "types": ["mosque", "place_of_worship", "point_of_interest", "establishment"], "formattedAddress": "6452 Jahimah Ibn Al Abbas, \u062d\u064a \u0627\u0644\u0646\u0633\u064a\u0645\u060c 3846\u060c Jeddah 23233, Saudi Arabia", "location": {"latitude": 21.513323, "longitude": 39.23555580000001}, "rating": 4.7, "userRatingCount": 853, "displayName": {"text": "Al-Yahya Mosque", "languageCode": "en"}, "primaryType": "mosque"}, {"id": "ChIJOUuloYHOwxURnbRfnduW1CM", "types": ["mosque", "place_of_worship", "point_of_interest", "establishment"], "formattedAddress": "4825 Bakhashab, 7209\u060c \u062d\u064a \u0627\u0644\u062b\u063a\u0631\u060c 7143, Jeddah 22338, Saudi Arabia", "location": {"latitude": 21.4811299, "longitude": 39.235081199999996}, "rating": 4.6, "userRatingCount": 690, "displayName": {"text": "Mute'b Prince Musque", "languageCode": "en"}, "primaryType": "mosque"}, {"id": "ChIJwcOQWWLPwxURpYcg5PMrVME", "types": ["mosque", "place_of_worship", "point_of_interest", "establishment"], "formattedAddress": "JBNB3399\u060c 3399 \u0627\u0645 \u0627\u0644\u0645\u0624\u0645\u0646\u064a\u0646 \u0635\u0641\u064a\u0647\u060c 7201 \u062d\u064a \u0627\u0644\u0646\u0633\u064a\u0645\u060c An Naseem, Jeddah 23234, Saudi Arabia", "location": {"latitude": 21.5198084, "longitude": 39.2311179}, "rating": 4.9, "userRatingCount": 53, "displayName": {"text": "\u0645\u0633\u062c\u062f \u0627\u0644\u0633\u064a\u062f\u0629 \u0631\u0642\u064a\u0629 \u0631\u062d\u0645\u0647\u0627 \u0627\u0644\u0644\u0647", "languageCode": "ar"}, "primaryType": "mosque"}, {"id": "ChIJw816W_bRwxURRkGTaeaT-Jw", "types": ["mosque", "place_of_worship", "point_of_interest", "establishment"], "formattedAddress": "3844 \u0639\u0628\u062f\u0627\u0644\u0645\u0644\u0643 \u0627\u0644\u062c\u062f\u064a - \u062d\u064a - 9157\u060c Bani Malik, Jeddah 23235, Saudi Arabia", "location": {"latitude": 21.5377773, "longitude": 39.235532899999995}, "rating": 4.8, "userRatingCount": 337, "displayName": {"text": "Al-Ehsan Mosque", "languageCode": "en"}, "primaryType": "mosque"}, {"id": "ChIJqZ3UUzjOwxURObdPpNxZ2wo", "types": ["mosque", "place_of_worship", "point_of_interest", "establishment"], "formattedAddress": "6565 - \u062d\u064a - 3656\u060c Al Warood, Jeddah 23224, Saudi Arabia", "location": {"latitude": 21.514199899999998, "longitude": 39.2084885}, "rating": 4.7, "userRatingCount": 800, "displayName": {"text": "Masjid Al Nakheel", "languageCode": "en"}, "primaryType": "mosque"}, {"id": "ChIJods3R4rOwxUR30Qd5mTcMA4", "types": ["mosque", "place_of_worship", "point_of_interest", "establishment"], "formattedAddress": "3853\u060c 6558 Abi Al Khair Al Makki, \u062d\u064a \u0627\u0644\u0641\u064a\u062d\u0627\u0621\u060c Jeddah 22246, Saudi Arabia", "location": {"latitude": 21.4871765, "longitude": 39.2205851}, "rating": 4.8, "userRatingCount": 330, "displayName": {"text": "Mohammed Al Fateh Mosque", "languageCode": "en"}, "primaryType": "mosque"}, {"id": "ChIJte9wk2HOwxURwOnuFu7Qrjk", "types": ["mosque", "place_of_worship", "point_of_interest", "establishment"], "formattedAddress": "3880 Barakat Ibn Abdul Mutalib, \u062d\u064a \u0627\u0644\u0641\u064a\u062d\u0627\u0621\u060c 6878\u060c Jeddah 22246, Saudi Arabia", "location": {"latitude": 21.4900739, "longitude": 39.2210189}, "rating": 4.7, "userRatingCount": 315, "displayName": {"text": "Al-Mawadah Mosque", "languageCode": "en"}, "primaryType": "mosque"}, {"id": "ChIJn1jx1x_OwxURMVRFDfXN768", "types": ["mosque", "place_of_worship", "point_of_interest", "establishment"], "formattedAddress": "3087 - \u062d\u064a - 8088\u060c Bani Malik, Jeddah 23232, Saudi Arabia", "location": {"latitude": 21.528962, "longitude": 39.21870380000001}, "rating": 4.8, "userRatingCount": 826, "displayName": {"text": "Al Firdous Mosque", "languageCode": "en"}, "primaryType": "mosque"}, {"id": "ChIJFQI3Dw_OwxURj18EQom7Fm8", "types": ["mosque", "place_of_worship", "point_of_interest", "establishment"], "formattedAddress": "3271 Ahmad Al Hemsi, \u062d\u064a \u0627\u0644\u0646\u0633\u064a\u0645\u060c 6554\u060c Jeddah 23233, Saudi Arabia", "location": {"latitude": 21.514243699999998, "longitude": 39.230117199999995}, "rating": 4.6, "userRatingCount": 494, "displayName": {"text": "Kawthar mosque", "languageCode": "en"}, "primaryType": "mosque"}, {"id": "ChIJpYr5H9_RwxURKx3qH6sas8c", "types": ["mosque", "place_of_worship", "point_of_interest", "establishment"], "formattedAddress": "2519\u060c \u062d\u064a\u060c 8558 Hisham Ibn Amer, Bani Malik, Jeddah 23232, Saudi Arabia", "location": {"latitude": 21.533228800000003, "longitude": 39.213031099999995}, "rating": 4.6, "userRatingCount": 357, "displayName": {"text": "\u062c\u0627\u0645\u0639 \u0627\u0644\u0646\u0648\u0631", "languageCode": "en"}, "primaryType": "mosque"}, {"id": "ChIJUxci5PHOwxUR_gVdMo7W9R0", "types": ["mosque", "place_of_worship", "point_of_interest", "establishment"], "formattedAddress": "\u062d\u064a, 8863 Zahrat Al Bashnin, 3245, Al-Nazlah Al-Yamaniyah, Jeddah 22332, Saudi Arabia", "location": {"latitude": 21.4821372, "longitude": 39.2102205}, "rating": 4.4, "userRatingCount": 227, "displayName": {"text": "\u0645\u0633\u062c\u062f \u0639\u0645\u0627\u0626\u0631 \u0627\u0644\u0631\u0627\u062c\u062d\u064a", "languageCode": "ar"}, "primaryType": "mosque"}, {"id": "ChIJgSbZohDRwxURTnTPPKiTIG8", "types": ["mosque", "place_of_worship", "point_of_interest", "establishment"], "formattedAddress": "6830\u060c 4122 Dallah, 4122\u060c \u062d\u064a \u0627\u0644\u0631\u062d\u0627\u0628\u060c Jeddah 23343, Saudi Arabia", "location": {"latitude": 21.542333499999998, "longitude": 39.2220083}, "rating": 4.4, "userRatingCount": 180, "displayName": {"text": "Dallah Driving School", "languageCode": "en"}, "primaryType": "mosque"}, {"id": "ChIJa5OsbNfRwxURRP7VjyiM4_4", "types": ["mosque", "place_of_worship", "point_of_interest", "establishment"], "formattedAddress": "G6P3+CVQ, Al Labaqah, Mishrifah, Jeddah 23335, Saudi Arabia", "location": {"latitude": 21.536087, "longitude": 39.2047314}, "rating": 4.8, "userRatingCount": 164, "displayName": {"text": "Bilal Ibn Rabah Mosque", "languageCode": "en"}, "primaryType": "mosque"}, {"id": "ChIJ95tvEPjRwxURmiVRJvb4sow", "types": ["mosque", "place_of_worship", "point_of_interest", "establishment"], "formattedAddress": "8670 \u0639\u0628\u062f\u0627\u0644\u0643\u0631\u064a\u0645 \u0628\u0646 \u062c\u0647\u064a\u0645\u0627\u0646 - \u062d\u064a - 3986\u060c Bani Malik, Jeddah 23235, Saudi Arabia", "location": {"latitude": 21.5334058, "longitude": 39.2369237}, "rating": 4.7, "userRatingCount": 311, "displayName": {"text": "Said Al Shohadaa Mosque", "languageCode": "en"}, "primaryType": "mosque"}, {"id": "ChIJ__D7XX3OwxURSwxLdQd5lrk", "types": ["mosque", "place_of_worship", "point_of_interest", "establishment"], "formattedAddress": "F6PH+Q9Q\u060c \u0639\u0628\u062f \u0627\u0644\u0644\u0647 \u0627\u0644\u0633\u0644\u064a\u0645\u0627\u0646\u060c Al Fayha'a, Jeddah 22246, Saudi Arabia", "location": {"latitude": 21.486956499999998, "longitude": 39.228484}, "rating": 4.8, "userRatingCount": 1229, "displayName": {"text": "Al Homodi Mosque", "languageCode": "en"}, "primaryType": "mosque"}]