[{"id": "ChIJb-qYvL_RwxUR-qSPf9vyLsc", "types": ["parking", "point_of_interest", "establishment"], "formattedAddress": "7889 Prince Mutaib bin Abdulaziz Rd, Al-Rehab, Jeddah 23344, Saudi Arabia", "location": {"latitude": 21.551246499999998, "longitude": 39.214867399999996}, "rating": 4.1, "userRatingCount": 21, "displayName": {"text": "Parking Danube", "languageCode": "en"}, "primaryType": "parking"}, {"id": "ChIJtziKhcnRwxURcufNjVF8Igk", "types": ["parking", "point_of_interest", "establishment"], "formattedAddress": "Al Aziziyah District, Prince Majid Rd \u0627\u0644\u0623\u0645\u064a\u0631 \u0645\u0627\u062c\u062f\u060c 8498\u060c \u062d\u064a \u0627\u0644\u0639\u0632\u064a\u0632\u064a\u0629\u060c \u062c\u062f\u0629 23338, Saudi Arabia", "location": {"latitude": 21.5518873, "longitude": 39.2015932}, "rating": 4.2, "userRatingCount": 28, "displayName": {"text": "flamingo mall car parking", "languageCode": "en"}, "primaryType": "parking"}, {"id": "ChIJp2YAmbfRwxURahixWfPLysw", "types": ["parking", "point_of_interest", "establishment"], "formattedAddress": "H69G+3C, Al-Safa, Jeddah 23453, Saudi Arabia", "location": {"latitude": 21.5676716, "longitude": 39.2260851}, "rating": 4.6, "userRatingCount": 8, "displayName": {"text": "\u0645\u0648\u0627\u0642\u0641 \u0627\u0644\u062f\u0627\u0646\u0648\u0628", "languageCode": "ar"}, "primaryType": "parking"}, {"id": "ChIJGbagrAHRwxURiCeE72kFtqw", "types": ["parking", "point_of_interest", "establishment"], "formattedAddress": "H5GX+R7X, Al Faisaliyyah, Jeddah 23447, Saudi Arabia", "location": {"latitude": 21.5771207, "longitude": 39.1982424}, "rating": 4, "userRatingCount": 95, "displayName": {"text": "Aziz Mall Parking Lot", "languageCode": "en"}, "primaryType": "parking"}, {"id": "ChIJQ04dR27RwxURGweNPeknXVo", "types": ["parking", "point_of_interest", "establishment"], "formattedAddress": "7008, 3561 \u0627\u0644\u062c\u0641\u064a\u062f\u0647\u060c AR Rihab District, \u062c\u062f\u0629 23343, Saudi Arabia", "location": {"latitude": 21.5442805, "longitude": 39.2171929}, "rating": 3.7, "userRatingCount": 3, "displayName": {"text": "Residents parking zaitonah", "languageCode": "en"}, "primaryType": "parking"}, {"id": "ChIJgQtDuO_RwxURmN_K8iV8DyQ", "types": ["parking", "point_of_interest", "establishment"], "formattedAddress": "Prince Majid Branch Rd, Al-Safa, Jeddah 23451, Saudi Arabia", "location": {"latitude": 21.5773858, "longitude": 39.1995125}, "rating": 3, "userRatingCount": 1, "displayName": {"text": "My Clinic Alsafa Parking Lot", "languageCode": "en"}, "primaryType": "parking"}, {"id": "ChIJrbe0gLvRwxURlP0t-s1-oBM", "types": ["park_and_ride", "parking", "point_of_interest", "establishment"], "formattedAddress": "H656+7J2, Aziziyah, Jeddah 23342, Saudi Arabia", "location": {"latitude": 21.5581423, "longitude": 39.2115023}, "rating": 4.5, "userRatingCount": 36, "displayName": {"text": "UShape Park", "languageCode": "en"}, "primaryType": "park_and_ride"}, {"id": "ChIJ7bQukPvRwxURz_UybDT1BGQ", "types": ["parking", "point_of_interest", "establishment"], "formattedAddress": "H6M3+P7M, Jabal An Nayyir, Al-Safa, Jeddah 23452, Saudi Arabia", "location": {"latitude": 21.5843663, "longitude": 39.2032682}, "displayName": {"text": "MG GT", "languageCode": "en"}, "primaryType": "parking"}, {"id": "ChIJlWGGiMzRwxURxDI4nmmvTso", "types": ["parking", "point_of_interest", "establishment"], "formattedAddress": "7680\u060c 5393 Al Bahlul Ibn Rashid, \u062d\u064a \u0627\u0644\u0635\u0641\u0627\u060c Jeddah 23455, Saudi Arabia", "location": {"latitude": 21.595055, "longitude": 39.225163}, "displayName": {"text": "\u0633\u064a\u0627\u0631\u0629", "languageCode": "ar"}, "primaryType": "parking"}, {"id": "ChIJCzIhQQ_RwxURx7XWMvH9RqI", "types": ["parking", "point_of_interest", "establishment"], "formattedAddress": "JDSA7583\u060c 7583 \u062c\u0628\u0644 \u0627\u0644\u062f\u0648\u0645\u0627\u062a\u060c 2429\u060c \u062d\u064a \u0627\u0644\u0635\u0641\u0627\u060c Al-Safa, Jeddah 23451, Saudi Arabia", "location": {"latitude": 21.576776799999998, "longitude": 39.2032035}, "rating": 5, "userRatingCount": 3, "displayName": {"text": "\u0645\u0648\u0627\u0642\u0641 \u0645\u0633\u062c\u062f \u0627\u0644\u062a\u0639\u0627\u0648\u0646", "languageCode": "ar"}, "primaryType": "parking"}, {"id": "ChIJ4SP6UY_RwxURJgFp8hTyCUU", "types": ["parking", "point_of_interest", "establishment"], "formattedAddress": "7664 Jabal Abu Mughir, As Safa District\u060c Jeddah 23451, Saudi Arabia", "location": {"latitude": 21.577591800000004, "longitude": 39.1998135}, "rating": 5, "userRatingCount": 2, "displayName": {"text": "\u0645\u0648\u0627\u0642\u0641 \u0639\u064a\u0627\u062f\u062a\u064a", "languageCode": "ar"}, "primaryType": "parking"}, {"id": "ChIJ45yInQjRwxUR0JmCIv8Va64", "types": ["parking", "clothing_store", "store", "point_of_interest", "establishment"], "formattedAddress": "2953 Wadiy Qasyum, As Safa District, Jeddah 23451, Saudi Arabia", "location": {"latitude": 21.575426200000003, "longitude": 39.2062247}, "rating": 4.3, "userRatingCount": 9, "displayName": {"text": "\u0645\u0648\u0627\u0642\u0641 \u0645\u0631\u0643\u0632 \u0634\u0628\u0631\u0627", "languageCode": "ar"}, "primaryType": "parking"}, {"id": "ChIJPTNAkD_RwxURKQCB2Yx_g9w", "types": ["parking", "point_of_interest", "establishment"], "formattedAddress": "H6QP+3XX, Ankara, Al Samer, Jeddah 23462, Saudi Arabia", "location": {"latitude": 21.5877433, "longitude": 39.2374766}, "rating": 4.5, "userRatingCount": 2, "displayName": {"text": "\u0645\u0648\u0627\u0642\u0641 \u0645\u062a\u0627\u062c\u0631 \u0627\u0644\u0634\u0645\u064a\u0633\u064a", "languageCode": "ar"}, "primaryType": "parking"}, {"id": "ChIJOWrRdsfRwxURR8IJxHlnPW8", "types": ["parking", "point_of_interest", "establishment"], "formattedAddress": "Al Aziziyah District 2743, 7766 \u0627\u0644\u0635\u062d\u0627\u0641\u0647, \u062d\u064a \u0627\u0644\u0639\u0632\u064a\u0632\u064a\u0629\u060c \u062c\u062f\u0629 23342, Saudi Arabia", "location": {"latitude": 21.5508168, "longitude": 39.209269299999995}, "rating": 3.7, "userRatingCount": 3, "displayName": {"text": "Parking", "languageCode": "en"}, "primaryType": "parking"}, {"id": "ChIJxVXj1iHRwxURhWoPMTPAzHk", "types": ["parking", "point_of_interest", "establishment"], "formattedAddress": "\u0627\u0644\u0635\u0641\u0627\u060c\u060c H6Q7+GR7, Al-Safa, Jeddah 23455, Saudi Arabia", "location": {"latitude": 21.5887936, "longitude": 39.214550599999995}, "rating": 5, "userRatingCount": 4, "displayName": {"text": "\u0645\u0648\u0627\u0642\u0641 \u062c\u0627\u0645\u0639 \u0633\u0627\u0639\u062f \u0627\u0644\u0639\u0631\u0627\u0628\u064a", "languageCode": "ar"}, "primaryType": "parking"}, {"id": "ChIJ6T4yNCzRwxURcWR0128jP0c", "types": ["parking", "point_of_interest", "establishment"], "formattedAddress": "As Sahafa St, Aziziyah, Jeddah 23342, Saudi Arabia", "location": {"latitude": 21.550631499999998, "longitude": 39.2098444}, "rating": 5, "userRatingCount": 1, "displayName": {"text": "\u0645\u0648\u0627\u0642\u0641 \u0639\u0627\u0645\u0629", "languageCode": "ar"}, "primaryType": "parking"}, {"id": "ChIJ0ykukQfRwxURyq2SdU29dFc", "types": ["parking", "point_of_interest", "establishment"], "formattedAddress": "JDSD6501\u060c 6501 \u0623\u062d\u0645\u062f \u0627\u0644\u0633\u062a\u0631\u064a\u060c 3419\u060c \u062d\u064a \u0627\u0644\u0635\u0641\u0627\u060c\u060c Al-Safa, Jeddah 23453\u060c, Saudi Arabia", "location": {"latitude": 21.5683017, "longitude": 39.2235769}, "rating": 3, "userRatingCount": 1, "displayName": {"text": "\u0645\u0648\u0642\u0641 \u0633\u064a\u0627\u0631\u0627\u062a", "languageCode": "ar"}, "primaryType": "parking"}, {"id": "ChIJhZrUFeXTwxUR7oOJrJUwyEQ", "types": ["parking", "point_of_interest", "establishment"], "formattedAddress": "H6QW+RGP, Al Samer, Jeddah 23462, Saudi Arabia", "location": {"latitude": 21.5895774, "longitude": 39.2463354}, "rating": 2.5, "userRatingCount": 2, "displayName": {"text": "\u0645\u0648\u0627\u0642\u0641 \u0645\u062f\u0631\u0633\u0629 \u0627\u0644\u0627\u062d\u0646\u0641", "languageCode": "ar"}, "primaryType": "parking"}, {"id": "ChIJp7q8T4HRwxURtpc59JT5X3c", "types": ["parking", "point_of_interest", "establishment"], "formattedAddress": "4739 \u0627\u0644\u062f\u0648\u064a\u062d\u060c \u062d\u064a \u0627\u0644\u0635\u0641\u0627\u060c \u062c\u062f\u0629 23456 8337\u060c\u060c 8337, Al-Safa, Jeddah 23456, Saudi Arabia", "location": {"latitude": 21.6015698, "longitude": 39.2187141}, "rating": 5, "userRatingCount": 4, "displayName": {"text": "\u0645\u0648\u0642\u0641 \u0633\u064a\u0627\u0631\u0627\u062a", "languageCode": "ar"}, "primaryType": "parking"}, {"id": "ChIJ8eQ28TzRwxURX9dUOuI2bN8", "types": ["parking", "point_of_interest", "establishment"], "formattedAddress": "2871 \u0627\u0628\u0646 \u0639\u0631\u0628 JCZC2871 8028, Al Aziziyah District, \u062c\u062f\u0629 23342, Saudi Arabia", "location": {"latitude": 21.553149299999998, "longitude": 39.2105313}, "rating": 4, "userRatingCount": 2, "displayName": {"text": "Free Car Parking", "languageCode": "en"}, "primaryType": "parking"}]