[{"id": "ChIJBdpBXuwawhUREKpvyUJBsXM", "types": ["mosque", "place_of_worship", "point_of_interest", "establishment"], "formattedAddress": "\u0627\u0628\u0631\u0647\u0647 \u0628\u0646 \u0634\u0631\u062d\u0628\u064a\u0644\u060c Al Shoqiyah, Makkah 24351, Saudi Arabia", "location": {"latitude": 21.3914893, "longitude": 39.7896772}, "rating": 4.7, "userRatingCount": 1957, "displayName": {"text": "Masjid Al-Muhajireen", "languageCode": "en"}, "primaryType": "mosque"}, {"id": "ChIJ60olx_AawhURpEoLFCZNU2c", "types": ["mosque", "place_of_worship", "point_of_interest", "establishment"], "formattedAddress": "9QXJ+QJJ\u060c \u062e\u0644\u0641 \u0645\u0633\u062c\u062f \u0628\u0646 \u0646\u0635\u064a\u0631\u060c King Fahd, Makkah 24341, Saudi Arabia", "location": {"latitude": 21.399451, "longitude": 39.781512299999996}, "rating": 4.8, "userRatingCount": 1665, "displayName": {"text": "Abdul-Qadir Ahmed Nassier Mosque", "languageCode": "en"}, "primaryType": "mosque"}, {"id": "ChIJj8d9x34QwhURMvqdOfaN84I", "types": ["mosque", "place_of_worship", "point_of_interest", "establishment"], "formattedAddress": "3557, 8238, 3557\u060c \u0648\u0644\u064a \u0627\u0644\u0639\u0647\u062f\u060c \u0645\u0643\u0629 24353, Saudi Arabia", "location": {"latitude": 21.3679611, "longitude": 39.7798778}, "rating": 4.7, "userRatingCount": 589, "displayName": {"text": "Shafei Masjid", "languageCode": "en"}, "primaryType": "mosque"}, {"id": "ChIJ81jBJn0awhURJI3WqrRKpoU", "types": ["mosque", "place_of_worship", "point_of_interest", "establishment"], "formattedAddress": "9QJF+X57, King Fahd, Makkah 24342, Saudi Arabia", "location": {"latitude": 21.3824137, "longitude": 39.7729315}, "rating": 4.7, "userRatingCount": 668, "displayName": {"text": "\u062c\u0627\u0645\u0639 \u0648\u0645\u062c\u0645\u0639 \u0627\u0644\u0628\u0644\u062f \u0627\u0644\u0623\u0645\u064a\u0646 \u0627\u0644\u062d\u0636\u0627\u0631\u064a \u0627\u0644\u062e\u064a\u0631\u064a", "languageCode": "ar"}, "primaryType": "mosque"}, {"id": "ChIJ48M3PQAbwhURB7hrOuj4PCg", "types": ["mosque", "place_of_worship", "point_of_interest", "establishment"], "formattedAddress": "4554 Al Fawakih, King Fahd, Makkah 24341, Saudi Arabia", "location": {"latitude": 21.412940000000003, "longitude": 39.7772046}, "rating": 4.7, "userRatingCount": 1311, "displayName": {"text": "Al Tawheed Mosque", "languageCode": "en"}, "primaryType": "mosque"}, {"id": "ChIJ8wjKp9IbwhURz_v_crvGyyU", "types": ["mosque", "place_of_worship", "point_of_interest", "establishment"], "formattedAddress": "8723 \u0639\u0628\u062f\u0627\u0644\u0644\u0647 \u0628\u0646 \u0627\u0644\u0639\u0628\u0627\u0633 - \u062d\u064a - 3479\u060c Al Shoqiyah, Makkah 24351, Saudi Arabia", "location": {"latitude": 21.3952423, "longitude": 39.7979108}, "rating": 4.8, "userRatingCount": 112, "displayName": {"text": "Al Ehsan mosque", "languageCode": "en"}, "primaryType": "mosque"}, {"id": "ChIJQX4BJxgbwhURou6K4dtRw40", "types": ["mosque", "place_of_worship", "point_of_interest", "establishment"], "formattedAddress": "8399 Al Basirah, 3535, Al Hindawiyyah, Makkah 24232, Saudi Arabia", "location": {"latitude": 21.4163852, "longitude": 39.7947126}, "rating": 4.2, "userRatingCount": 95, "displayName": {"text": "Albasnawi masjed", "languageCode": "en"}, "primaryType": "mosque"}, {"id": "ChIJrX-v-_IawhUR12_3y3Gi7uI", "types": ["mosque", "place_of_worship", "point_of_interest", "establishment"], "formattedAddress": "9QRM+WFM, King Fahd, Makkah 24342, Saudi Arabia", "location": {"latitude": 21.3923465, "longitude": 39.783677399999995}, "rating": 4.7, "userRatingCount": 401, "displayName": {"text": "Bilal bin Rabah Mosque", "languageCode": "en"}, "primaryType": "mosque"}, {"id": "ChIJg6kLE68bwhUR2wstyFDSObo", "types": ["mosque", "place_of_worship", "point_of_interest", "establishment"], "formattedAddress": "CQF9+5F5, Al Hamra Umm Al Jud, Makkah 24321, Saudi Arabia", "location": {"latitude": 21.4228933, "longitude": 39.7687288}, "rating": 4.7, "userRatingCount": 329, "displayName": {"text": "Princess Al-Anoud Mosque", "languageCode": "en"}, "primaryType": "mosque"}, {"id": "ChIJa87yKhkbwhURnS3ZKFlctU0", "types": ["mosque", "place_of_worship", "point_of_interest", "establishment"], "formattedAddress": "Prince Ahmad Mosque, Ar Rusayfah, Makkah 24232, Saudi Arabia", "location": {"latitude": 21.4134629, "longitude": 39.791172599999996}, "rating": 4.7, "userRatingCount": 874, "displayName": {"text": "Princess Hessah Al Sudairi Grand Mosque Masjid", "languageCode": "en"}, "primaryType": "mosque"}, {"id": "ChIJrVDAl50awhURsMxzhrT3G6E", "types": ["mosque", "place_of_worship", "point_of_interest", "establishment"], "formattedAddress": "9QCQ+3MM, Walyal Ahd Dist., Makkah 24353, Saudi Arabia", "location": {"latitude": 21.3702003, "longitude": 39.7891653}, "rating": 4.7, "userRatingCount": 438, "displayName": {"text": "Al-Eman Mosque", "languageCode": "en"}, "primaryType": "mosque"}, {"id": "ChIJ47JftuEawhURadUh_91v5Hk", "types": ["mosque", "place_of_worship", "point_of_interest", "establishment"], "formattedAddress": "CQ4V+FC9, Ar Rusayfah, Makkah 24232, Saudi Arabia", "location": {"latitude": 21.4061523, "longitude": 39.7936068}, "rating": 4.3, "userRatingCount": 135, "displayName": {"text": "Sharif Nayef bin Fahd Mosque", "languageCode": "en"}, "primaryType": "mosque"}, {"id": "ChIJGWi8xo8awhURuzSdop_D4P4", "types": ["mosque", "place_of_worship", "point_of_interest", "establishment"], "formattedAddress": "9QJP+P23, Al Shoqiyah, Makkah 24351, Saudi Arabia", "location": {"latitude": 21.3817669, "longitude": 39.785058299999996}, "rating": 4.6, "userRatingCount": 227, "displayName": {"text": "Alehsan Mosque", "languageCode": "en"}, "primaryType": "mosque"}, {"id": "ChIJ15-_rr8awhUR3vfcHkNUSbc", "types": ["mosque", "place_of_worship", "point_of_interest", "establishment"], "formattedAddress": "9QMX+J8W, Al Shoqiyah, Makkah 24351, Saudi Arabia", "location": {"latitude": 21.3841124, "longitude": 39.798338400000006}, "rating": 4.6, "userRatingCount": 214, "displayName": {"text": "Asma bint Umays Mosque", "languageCode": "en"}, "primaryType": "mosque"}, {"id": "ChIJK2I0rr4awhURSX8fv-Yt5-M", "types": ["mosque", "place_of_worship", "point_of_interest", "establishment"], "formattedAddress": "9RJ2+CCV, Al Shoqiyah, Makkah 24351, Saudi Arabia", "location": {"latitude": 21.3811236, "longitude": 39.8010404}, "rating": 4.4, "userRatingCount": 204, "displayName": {"text": "Hedaya Mosque", "languageCode": "en"}, "primaryType": "mosque"}, {"id": "ChIJS2fpbCsbwhURPVhwSugsXM4", "types": ["mosque", "place_of_worship", "point_of_interest", "establishment"], "formattedAddress": "\u0627\u0644\u062e\u0627\u0644\u062f\u064a\u0629\u060c\u060c 9RW2+JP9, Al Khalidiyyah, Makkah 24232, Saudi Arabia", "location": {"latitude": 21.396540599999998, "longitude": 39.8018655}, "rating": 4.9, "userRatingCount": 85, "displayName": {"text": "\u062c\u0627\u0645\u0639 \u0648\u0627\u0644\u062f\u0629 \u0627\u0644\u0634\u064a\u062e \u0639\u0628\u062f\u0627\u0644\u0644\u0647 \u0627\u0644\u0645\u0648\u0633\u0649 \u0631\u062d\u0645\u0647\u0627 \u0627\u0644\u0644\u0647 ( \u0648\u0642\u0641 \u0627\u0644\u0639\u0645\u0631\u064a\u0646 )", "languageCode": "ar"}, "primaryType": "mosque"}, {"id": "ChIJ4SL1NOMawhURn2yVkwC9PKw", "types": ["mosque", "place_of_worship", "point_of_interest", "establishment"], "formattedAddress": "\u062c\u0627\u0645\u0639 \u0627\u0644\u0647\u062f\u0649\u060c Ar Rusayfah, Makkah 24232, Saudi Arabia", "location": {"latitude": 21.4059457, "longitude": 39.785978199999995}, "rating": 4.7, "userRatingCount": 403, "displayName": {"text": "Alhuda Grand Mosque", "languageCode": "en"}, "primaryType": "mosque"}, {"id": "ChIJo4OK3_4awhURIa3CS20gvuE", "types": ["mosque", "place_of_worship", "point_of_interest", "establishment"], "formattedAddress": "CQ5H+573, Az Zuhd, King Fahd, Makkah 24341, Saudi Arabia", "location": {"latitude": 21.4078898, "longitude": 39.7781631}, "rating": 4.6, "userRatingCount": 230, "displayName": {"text": "Az Zuhd Mosque", "languageCode": "en"}, "primaryType": "mosque"}, {"id": "ChIJ57qZxuYbwhURb69tazYtqvE", "types": ["mosque", "place_of_worship", "point_of_interest", "establishment"], "formattedAddress": "3051\u060c 7983\u060c 3051, Al Shoqiyah, Makkah 24351, Saudi Arabia", "location": {"latitude": 21.388531099999998, "longitude": 39.793535899999995}, "rating": 4.5, "userRatingCount": 61, "displayName": {"text": "\u0645\u0633\u062c\u062f \u0627\u0644\u0625\u062d\u0633\u0627\u0646", "languageCode": "ar"}, "primaryType": "mosque"}, {"id": "ChIJGVmIiOkawhURUNjsY_ljb90", "types": ["mosque", "place_of_worship", "point_of_interest", "establishment"], "formattedAddress": "9QRV+XPJ, Al Shoqiyah, Makkah 24351, Saudi Arabia", "location": {"latitude": 21.392454, "longitude": 39.794272199999995}, "rating": 4.7, "userRatingCount": 248, "displayName": {"text": "Musa bin Hamad al-Musa Mosque", "languageCode": "en"}, "primaryType": "mosque"}]