[{"id": "ChIJ2T_nXFoFwhURKZKpiaBUFkk", "types": ["mosque", "place_of_worship", "point_of_interest", "establishment"], "formattedAddress": "8976, Batha Quraish, Makkah 24361, Saudi Arabia", "location": {"latitude": 21.3645158, "longitude": 39.828633599999996}, "rating": 4.7, "userRatingCount": 545, "displayName": {"text": "Masjid Aisha", "languageCode": "en"}, "primaryType": "mosque"}, {"id": "ChIJ0TfgjvQPwhURzAwRJtou9Og", "types": ["mosque", "place_of_worship", "point_of_interest", "establishment"], "formattedAddress": "3346\u060c \u062d\u064a\u060c 7588 4th Ring Rd, Batha Quraish, Makkah 24361, Saudi Arabia", "location": {"latitude": 21.352068, "longitude": 39.8350793}, "rating": 4.8, "userRatingCount": 1353, "displayName": {"text": "Sheikh Abdullah bin Abdul Aziz Mosque", "languageCode": "en"}, "primaryType": "mosque"}, {"id": "ChIJF0JqcPUPwhURyv02t4CVy5c", "types": ["mosque", "place_of_worship", "point_of_interest", "establishment"], "formattedAddress": "Batha Quraish, Makkah 24361, Saudi Arabia", "location": {"latitude": 21.3554095, "longitude": 39.8353241}, "rating": 4.6, "userRatingCount": 403, "displayName": {"text": "Al Rajhi Mosque", "languageCode": "en"}, "primaryType": "mosque"}, {"id": "ChIJ25IwFy8FwhURIqsqPakxVng", "types": ["mosque", "place_of_worship", "point_of_interest", "establishment"], "formattedAddress": "6706\u060c \u062d\u064a\u060c 3771 Jabal Thawr Rd, At Taqwa, Makkah 24233, Saudi Arabia", "location": {"latitude": 21.3918759, "longitude": 39.8252702}, "rating": 4.7, "userRatingCount": 221, "displayName": {"text": "Bin Hameed Mosque", "languageCode": "en"}, "primaryType": "mosque"}, {"id": "ChIJN0yTrP4PwhURMTrsXGZy_Q8", "types": ["mosque", "place_of_worship", "point_of_interest", "establishment"], "formattedAddress": "3990\u060c \u062d\u064a\u060c 8128 4th Ring Rd, Batha Quraish, Makkah 24362, Saudi Arabia", "location": {"latitude": 21.35529, "longitude": 39.8216956}, "rating": 4.7, "userRatingCount": 443, "displayName": {"text": "Fahd Bin Muammar Mosque", "languageCode": "en"}, "primaryType": "mosque"}, {"id": "ChIJTQJAMPgPwhURbQKFr87fYqI", "types": ["mosque", "place_of_worship", "point_of_interest", "establishment"], "formattedAddress": "9R4G+JGW\u060c \u0637\u0631\u064a\u0642 \u0627\u0644\u0642\u0627\u0636\u064a\u060c Batha Quraish, Makkah 24362, Saudi Arabia", "location": {"latitude": 21.3566017, "longitude": 39.8263165}, "rating": 4.7, "userRatingCount": 331, "displayName": {"text": "Al Taawun Mosque, mecca", "languageCode": "en"}, "primaryType": "mosque"}, {"id": "ChIJH89RtE8FwhURQhXYobzPW-c", "types": ["mosque", "place_of_worship", "point_of_interest", "establishment"], "formattedAddress": "4287, Batha Quraish, Makkah 24352, Saudi Arabia", "location": {"latitude": 21.3702123, "longitude": 39.8246645}, "rating": 4.7, "userRatingCount": 326, "displayName": {"text": "Ammar bin Yasser Mosque", "languageCode": "en"}, "primaryType": "mosque"}, {"id": "ChIJwU-zJh0FwhURQ9sXhqHWEwQ", "types": ["mosque", "place_of_worship", "point_of_interest", "establishment"], "formattedAddress": "9RRW+2MF, Kuday, Makkah 24234, Saudi Arabia", "location": {"latitude": 21.3900564, "longitude": 39.8466611}, "rating": 4.8, "userRatingCount": 614, "displayName": {"text": "Shaheed Mehrab Mosque", "languageCode": "en"}, "primaryType": "mosque"}, {"id": "ChIJ_xOU_f4PwhURcQNSyZfBsF8", "types": ["mosque", "place_of_worship", "point_of_interest", "establishment"], "formattedAddress": "3576 \u0634\u0627\u0631\u0639 \u0623\u0628\u0648 \u0627\u0644\u0639\u0627\u0635 \u0628\u0646 \u0627\u0644\u0631\u0628\u064a\u0639 \u0631\u0636\u0649 \u0627\u0644\u0644\u0647 \u0639\u0646\u0647\u060c \u062d\u064a \u0628\u0637\u062d\u0627\u0621 \u0642\u0631\u064a\u0634\u060c \u0645\u0643\u0629 \u0627\u0644\u0645\u0643\u0631\u0645\u0629 24361\u060c 7341, Batha Quraish, Makkah 7341\u060c, Saudi Arabia", "location": {"latitude": 21.3520158, "longitude": 39.835138}, "rating": 4.8, "userRatingCount": 48, "displayName": {"text": "\u062c\u0627\u0645\u0639 \u0627\u0644\u0633\u0631\u064a\u0639", "languageCode": "ar"}, "primaryType": "mosque"}, {"id": "ChIJQw1YZ-0PwhURMTfH7Va19pQ", "types": ["mosque", "place_of_worship", "point_of_interest", "establishment"], "formattedAddress": "8RWP+6FV, Batha Quraish, Makkah 24361, Saudi Arabia", "location": {"latitude": 21.3456112, "longitude": 39.836184700000004}, "rating": 4.5, "userRatingCount": 141, "displayName": {"text": "Al-amin Mosque", "languageCode": "en"}, "primaryType": "mosque"}, {"id": "ChIJ96z5UEEFwhURPEQLf2rgIWw", "types": ["mosque", "place_of_worship", "point_of_interest", "establishment"], "formattedAddress": "5107, 7210\u060c \u0628\u0637\u062d\u0627\u0621 \u0642\u0631\u064a\u0634\u060c \u0645\u0643\u0629 24352, Saudi Arabia", "location": {"latitude": 21.371889100000004, "longitude": 39.8327168}, "rating": 4.7, "userRatingCount": 249, "displayName": {"text": "Mosque of Paradise", "languageCode": "en"}, "primaryType": "mosque"}, {"id": "ChIJrVDAl50awhURsMxzhrT3G6E", "types": ["mosque", "place_of_worship", "point_of_interest", "establishment"], "formattedAddress": "9QCQ+3MM, Walyal Ahd Dist., Makkah 24353, Saudi Arabia", "location": {"latitude": 21.3702003, "longitude": 39.7891653}, "rating": 4.7, "userRatingCount": 438, "displayName": {"text": "Al-Eman Mosque", "languageCode": "en"}, "primaryType": "mosque"}, {"id": "ChIJYZ7_lowPwhURMoIw5faPOVU", "types": ["mosque", "place_of_worship", "point_of_interest", "establishment"], "formattedAddress": "3707 - \u062d\u064a - 7240\u060c Batha Quraish, Makkah 24361, Saudi Arabia", "location": {"latitude": 21.3492423, "longitude": 39.8387643}, "rating": 4.7, "userRatingCount": 259, "displayName": {"text": "\u062c\u0627\u0645\u0639 \u0641\u0643\u0631\u0629 \u0628\u0646\u062a \u0633\u0639\u064a\u062f \u0627\u0644\u0645\u062c\u062f\u0648\u0639\u064a", "languageCode": "en"}, "primaryType": "mosque"}, {"id": "ChIJQ17V5XgRwhURMoSWvvSRJAY", "types": ["mosque", "place_of_worship", "point_of_interest", "establishment"], "formattedAddress": "MDWA7441\u060c 7441 \u0627\u0628\u0627 \u0627\u0644\u0631\u062d\u064a\u060c 4858\u060c \u062d\u064a \u0648\u0644\u064a \u0627\u0644\u0639\u0647\u062f\u060c\u060c Walyal Ahd Dist., Makkah 24353\u060c, Saudi Arabia", "location": {"latitude": 21.360645500000004, "longitude": 39.7922447}, "rating": 4.5, "userRatingCount": 10, "displayName": {"text": "\u0639\u0648\u0627\u0644\u064a", "languageCode": "ar"}, "primaryType": "mosque"}, {"id": "ChIJKw9m9T0FwhURlgJSZq6jErY", "types": ["mosque", "place_of_worship", "point_of_interest", "establishment"], "formattedAddress": "8807, 3095\u060c \u0627\u0644\u0647\u062c\u0631\u0629\u060c \u0645\u0643\u0629 24241, Saudi Arabia", "location": {"latitude": 21.3812517, "longitude": 39.8372965}, "rating": 4.6, "userRatingCount": 157, "displayName": {"text": "\u062c\u0627\u0645\u0639 \u062c\u0628\u0644 \u062b\u0648\u0631", "languageCode": "ar"}, "primaryType": "mosque"}, {"id": "ChIJ46MiJEIFwhURC9DhFI6wQWE", "types": ["mosque", "place_of_worship", "point_of_interest", "establishment"], "formattedAddress": "5420, 7049\u060c \u0628\u0637\u062d\u0627\u0621 \u0642\u0631\u064a\u0634\u060c \u0645\u0643\u0629 24352, Saudi Arabia", "location": {"latitude": 21.3705745, "longitude": 39.8355712}, "rating": 4.7, "userRatingCount": 142, "displayName": {"text": "Altaqwa Mosque", "languageCode": "en"}, "primaryType": "mosque"}, {"id": "ChIJT7aqUlQFwhUR7gt1agUE96s", "types": ["mosque", "place_of_worship", "point_of_interest", "establishment"], "formattedAddress": "3787, Batha Quraish, Makkah 24352, Saudi Arabia", "location": {"latitude": 21.362799799999998, "longitude": 39.819960699999996}, "rating": 4.8, "userRatingCount": 167, "displayName": {"text": "Khadija Bint Khuwailid Mosque", "languageCode": "en"}, "primaryType": "mosque"}, {"id": "ChIJeXGbsT4FwhURx7Qq2Gi7UDw", "types": ["mosque", "place_of_worship", "point_of_interest", "establishment"], "formattedAddress": "2516 Zat Al Nitaqain, 8717, Al Hijrah, Makkah 24241, Saudi Arabia", "location": {"latitude": 21.380705600000002, "longitude": 39.832557699999995}, "rating": 4.7, "userRatingCount": 174, "displayName": {"text": "Al Sabbagh Mosque", "languageCode": "en"}, "primaryType": "mosque"}, {"id": "ChIJK2I0rr4awhURSX8fv-Yt5-M", "types": ["mosque", "place_of_worship", "point_of_interest", "establishment"], "formattedAddress": "9RJ2+CCV, Al Shoqiyah, Makkah 24351, Saudi Arabia", "location": {"latitude": 21.3811236, "longitude": 39.8010404}, "rating": 4.4, "userRatingCount": 204, "displayName": {"text": "Hedaya Mosque", "languageCode": "en"}, "primaryType": "mosque"}, {"id": "ChIJ1fdO7j4FwhURwZmMT1c_THo", "types": ["mosque", "place_of_worship", "point_of_interest", "establishment"], "formattedAddress": "2755, 8594\u060c \u0627\u0644\u0647\u062c\u0631\u0629\u060c \u0645\u0643\u0629 24241, Saudi Arabia", "location": {"latitude": 21.3792904, "longitude": 39.8340568}, "rating": 4.6, "userRatingCount": 94, "displayName": {"text": "\u0645\u0633\u062c\u062f \u0630\u0627\u062a \u0627\u0644\u0646\u0637\u0627\u0642\u064a\u0646", "languageCode": "ar"}, "primaryType": "mosque"}]