[{"id": "ChIJk7Q_TbcEwhURhUcJjk_50VU", "types": ["mosque", "tourist_attraction", "place_of_worship", "point_of_interest", "establishment"], "formattedAddress": "Al Haram, Makkah 24231, Saudi Arabia", "location": {"latitude": 21.422516899999998, "longitude": 39.8262041}, "rating": 4.9, "userRatingCount": 446915, "displayName": {"text": "Masjid al-Haram", "languageCode": "en"}, "primaryType": "mosque"}, {"id": "ChIJ1YFfUKYEwhURkc_OpjkJxQg", "types": ["mosque", "place_of_worship", "point_of_interest", "establishment"], "formattedAddress": "8464 Al Masjid Al Haram Rd, As Sulaymaniyyah, Makkah 24231, Saudi Arabia", "location": {"latitude": 21.4334258, "longitude": 39.828938099999995}, "rating": 4.7, "userRatingCount": 3405, "displayName": {"text": "Mosque of the Jinn", "languageCode": "en"}, "primaryType": "mosque"}, {"id": "ChIJ76lCB0sbwhURQuswxodSt-k", "types": ["mosque", "place_of_worship", "point_of_interest", "establishment"], "formattedAddress": "3035 \u0637\u0631\u064a\u0642 \u0627\u0645 \u0627\u0644\u0642\u0631\u0649\u060c\u060c 7413 Umm Al Qura Rd, At Tandabawi, Makkah 24231, Saudi Arabia", "location": {"latitude": 21.4239242, "longitude": 39.8142496}, "rating": 4.6, "userRatingCount": 934, "displayName": {"text": "Bin Ladin Mosque", "languageCode": "en"}, "primaryType": "mosque"}, {"id": "ChIJfeGfcWIEwhURz0j58d9MvFE", "types": ["mosque", "place_of_worship", "point_of_interest", "establishment"], "formattedAddress": "2675 Al Farah, Al Aziziyah, Mecca 24243 8224 Al Farah, 8224, Alaziziyyah, Makkah 24243, Saudi Arabia", "location": {"latitude": 21.415355599999998, "longitude": 39.8583438}, "rating": 4.7, "userRatingCount": 784, "displayName": {"text": "Rajahi Mosque", "languageCode": "en"}, "primaryType": "mosque"}, {"id": "ChIJEWSjC7oEwhURRlK9Iny8D5Q", "types": ["mosque", "tourist_attraction", "historical_landmark", "place_of_worship", "point_of_interest", "establishment"], "formattedAddress": "4280 \u0628\u0627\u0628 \u0627\u0644\u0639\u0645\u0631\u0629 Harat Al Bab and Ash Shamiyyah \u0645\u0643\u0629 24231\u060c 7499, Al Haram, Makkah 7499, Saudi Arabia", "location": {"latitude": 21.4235258, "longitude": 39.8273744}, "rating": 4.9, "userRatingCount": 28098, "displayName": {"text": "Safa and Marwa (Saee)", "languageCode": "en"}, "primaryType": "mosque"}, {"id": "ChIJV0d0srQbwhURluoGrAvQ-H0", "types": ["mosque", "place_of_worship", "point_of_interest", "establishment"], "formattedAddress": "6534 \u0627\u0644\u0645\u0646\u0635\u0648\u0631\u060c \u0627\u0644\u0632\u0647\u0631\u0627\u0621\u060c \u0645\u0643\u0629 24221 3797\u060c\u060c Az Zahra, Makkah 24221, Saudi Arabia", "location": {"latitude": 21.4271723, "longitude": 39.8065426}, "rating": 4.5, "userRatingCount": 1255, "displayName": {"text": "\u0645\u0633\u062c\u062f \u0628\u0646 \u062d\u0633\u0646", "languageCode": "ar"}, "primaryType": "mosque"}, {"id": "ChIJp3ITmmcDwhURoiAa2fVgFow", "types": ["mosque", "place_of_worship", "point_of_interest", "establishment"], "formattedAddress": "Al Maabdah, Makkah 24236, Saudi Arabia", "location": {"latitude": 21.4421336, "longitude": 39.838226}, "rating": 4.7, "userRatingCount": 516, "displayName": {"text": "Al Ejabah Mosque", "languageCode": "en"}, "primaryType": "mosque"}, {"id": "ChIJS3UDo0MbwhURKBEDwebGZ00", "types": ["mosque", "place_of_worship", "point_of_interest", "establishment"], "formattedAddress": "7079, 3112\u060c \u0627\u0644\u0632\u0647\u0631\u0627\u0621\u060c \u0645\u0643\u0629 24221, Saudi Arabia", "location": {"latitude": 21.4322749, "longitude": 39.7999131}, "rating": 4.5, "userRatingCount": 642, "displayName": {"text": "Kuwaiti Mosque", "languageCode": "en"}, "primaryType": "mosque"}, {"id": "ChIJz_6A_rsFwhURe0sN2I173TU", "types": ["mosque", "place_of_worship", "point_of_interest", "establishment"], "formattedAddress": "MASB3656\u060c 3656, 6051 \u0634\u0627\u0631\u0639 354 \u062c\u0631\u0647\u0645 \u0627\u0644\u0634\u0645\u0627\u0644\u064a\u0629, \u062d\u064a \u0627\u0644\u0634\u0628\u064a\u0643\u0629, \u0645\u0643\u0629 24231, Saudi Arabia", "location": {"latitude": 21.4116125, "longitude": 39.8200467}, "rating": 4.8, "userRatingCount": 123, "displayName": {"text": "Makkah haram", "languageCode": "en"}, "primaryType": "mosque"}, {"id": "ChIJZ6_oOocEwhUReeocIT1qH_M", "types": ["mosque", "place_of_worship", "point_of_interest", "establishment"], "formattedAddress": "6148 \u0637\u0631\u06cc\u0642 \u0627\u0644\u0645\u0633\u062c\u062f \u0627\u0644\u062d\u0631\u0627\u0645\u060c \u0634\u0627\u0631\u0639 \u0645\u0633\u062c\u062f \u0627\u0644\u0634\u064a\u062e \u0627\u0628\u0646 \u0628\u0627\u0632\u060c \u062d\u064a \u0627\u0644\u0639\u0632\u064a\u0632\u064a\u0629\u060c MCAB6148\u060c Makkah 24236, Saudi Arabia", "location": {"latitude": 21.4234018, "longitude": 39.8560756}, "rating": 4.7, "userRatingCount": 1855, "displayName": {"text": "Sheikh AbdulAziz Ibn Baz Mosque", "languageCode": "en"}, "primaryType": "mosque"}, {"id": "ChIJjWzib6IFwhURByouuzuMtk0", "types": ["mosque", "place_of_worship", "point_of_interest", "establishment"], "formattedAddress": "\u062d\u062f\u064a\u0642\u0629 \u0627\u0644\u0637\u0627\u0626\u0641\u060c \u0637\u0631\u06cc\u0642 \u0627\u0644\u0645\u0633\u062c\u062f \u0627\u0644\u062d\u0631\u0627\u0645\u060c \u0627\u0644\u0639\u0632\u064a\u0632\u064a\u0629\u060c \u0645\u0643\u0629 24243\u060c\u060c Alaziziyyah, Makkah 24243, Saudi Arabia", "location": {"latitude": 21.4182913, "longitude": 39.854493999999995}, "rating": 4.5, "userRatingCount": 318, "displayName": {"text": "QATAR Mosque", "languageCode": "en"}, "primaryType": "mosque"}, {"id": "ChIJ48p3HbcEwhURkA8pY84MHkY", "types": ["mosque", "place_of_worship", "point_of_interest", "establishment"], "formattedAddress": "CRCF+JV5, Al Haram, Makkah 24231, Saudi Arabia", "location": {"latitude": 21.4215035, "longitude": 39.8247277}, "rating": 4.9, "userRatingCount": 2229, "displayName": {"text": "King Fahd Extension", "languageCode": "en"}, "primaryType": "mosque"}, {"id": "ChIJYS_-NskEwhURaTtp-ZeIWkQ", "types": ["mosque", "place_of_worship", "point_of_interest", "establishment"], "formattedAddress": "CR7F+M6H, Al Hejrah, Al Hajlah, Makkah 24231, Saudi Arabia", "location": {"latitude": 21.4141846, "longitude": 39.823096}, "rating": 4.8, "userRatingCount": 491, "displayName": {"text": "Masjid Al Hijrah", "languageCode": "en"}, "primaryType": "mosque"}, {"id": "ChIJETJtRbYFwhURRSs4msLGBlA", "types": ["mosque", "place_of_worship", "point_of_interest", "establishment"], "formattedAddress": "CRM9+G8J, Omar Ibn Abd Al Aziz, Jarwal, Makkah 24231, Saudi Arabia", "location": {"latitude": 21.433842400000003, "longitude": 39.8182723}, "rating": 4.6, "userRatingCount": 113, "displayName": {"text": "\u0646\u0641\u0642 \u0627\u0644\u0645\u0634\u0627\u0647 \u0627\u0644\u0649 \u0627\u0644\u062d\u0631\u0645 \u0645\u0646 \u062c\u0631\u0648\u0644", "languageCode": "ar"}, "primaryType": "mosque"}, {"id": "ChIJ0-HcV0IFwhURUnH_xLYIDWI", "types": ["mosque", "place_of_worship", "point_of_interest", "establishment"], "formattedAddress": "4574\u060c \u0627\u0644\u0631\u0648\u0636\u0629\u060c \u0645\u0643\u0629 24236 6630\u060c\u060c 6630, Ar Rawdah, Makkah 24236, Saudi Arabia", "location": {"latitude": 21.4275897, "longitude": 39.8535928}, "rating": 4.6, "userRatingCount": 117, "displayName": {"text": "\u0645\u0633\u062c\u062f \u0627\u0644\u0631\u0627\u062c\u062d\u064a", "languageCode": "ar"}, "primaryType": "mosque"}, {"id": "ChIJoadkPVIDwhURX4dLTk4wTlc", "types": ["mosque", "place_of_worship", "point_of_interest", "establishment"], "formattedAddress": "\u0634\u0627\u0631\u0639 \u0627\u0644\u062c\u0632\u0627\u0626\u0631 \u062d\u064a\u060c Al Utaybiyyah, Makkah 24237, Saudi Arabia", "location": {"latitude": 21.4476564, "longitude": 39.821133499999995}, "rating": 4.6, "userRatingCount": 486, "displayName": {"text": "Kuwaiti Mosque", "languageCode": "en"}, "primaryType": "mosque"}, {"id": "ChIJfZhR4fYFwhUR5cyszOsUC-k", "types": ["mosque", "place_of_worship", "point_of_interest", "establishment"], "formattedAddress": "CRGH+CQJ, Al Masjid Al Haram Rd, Al Haram, Makkah 24231, Saudi Arabia", "location": {"latitude": 21.4260928, "longitude": 39.829394199999996}, "rating": 4.3, "userRatingCount": 28, "displayName": {"text": "\u062c\u0631\u0648\u0644", "languageCode": "ar"}, "primaryType": "mosque"}, {"id": "ChIJ07SQof0FwhURFxTscCvKmOU", "types": ["mosque", "place_of_worship", "point_of_interest", "establishment"], "formattedAddress": "MASB6514\u060c 6514 \u0637\u0631\u064a\u0642 \u0625\u0628\u0631\u0627\u0647\u064a\u0645 \u0627\u0644\u062e\u0644\u064a\u0644\u060c 3916 \u062d\u064a\u060c Ash Shubaikah, Makkah 24231, Saudi Arabia", "location": {"latitude": 21.4157683, "longitude": 39.8226283}, "rating": 5, "userRatingCount": 21, "displayName": {"text": "\u062d\u0631\u0645", "languageCode": "ar"}, "primaryType": "mosque"}, {"id": "ChIJ25IwFy8FwhURIqsqPakxVng", "types": ["mosque", "place_of_worship", "point_of_interest", "establishment"], "formattedAddress": "6706\u060c \u062d\u064a\u060c 3771 Jabal Thawr Rd, At Taqwa, Makkah 24233, Saudi Arabia", "location": {"latitude": 21.3918759, "longitude": 39.8252702}, "rating": 4.7, "userRatingCount": 221, "displayName": {"text": "Bin Hameed Mosque", "languageCode": "en"}, "primaryType": "mosque"}, {"id": "ChIJORFxa2cDwhUR27BBOwEw8xQ", "types": ["mosque", "place_of_worship", "point_of_interest", "establishment"], "formattedAddress": "CRRQ+6C8, Al Maabdah, Makkah 24236, Saudi Arabia", "location": {"latitude": 21.4405449, "longitude": 39.838577099999995}, "rating": 4.6, "userRatingCount": 557, "displayName": {"text": "King Abdulaziz Grand Mosque", "languageCode": "en"}, "primaryType": "mosque"}]