[{"id": "ChIJqU_DoUtDXz4RxC8gnP8G_Ss", "types": ["museum", "parking", "store", "restaurant", "food", "point_of_interest", "establishment"], "formattedAddress": "67CP+H4Q - Sheikh Zayed Rd - Trade Centre - Trade Centre 2 - Dubai - United Arab Emirates", "location": {"latitude": 25.219203399999998, "longitude": 55.2819328}, "rating": 4.5, "userRatingCount": 32774, "displayName": {"text": "Museum of The Future", "languageCode": "en"}, "primaryType": "museum"}, {"id": "ChIJkdkorypoXz4RY_9KOq__Vcg", "types": ["tourist_attraction", "performing_arts_theater", "event_venue", "point_of_interest", "establishment"], "formattedAddress": "Sheikh Mohammed bin Rashid Blvd - Downtown Dubai - Dubai - United Arab Emirates", "location": {"latitude": 25.195617, "longitude": 55.271879}, "rating": 4.7, "userRatingCount": 7844, "displayName": {"text": "Dubai Opera", "languageCode": "en"}, "primaryType": "performing_arts_theater", "paymentOptions": {"acceptsCreditCards": true, "acceptsDebitCards": true, "acceptsCashOnly": false, "acceptsNfc": true}}, {"id": "ChIJBXKDF8ZrXz4RyN9Kpa-MHwk", "types": ["performing_arts_theater", "event_venue", "point_of_interest", "establishment"], "formattedAddress": "Al Habtoor City - 260 Sheikh Zayed Rd - Dubai - United Arab Emirates", "location": {"latitude": 25.1841959, "longitude": 55.2543284}, "rating": 4.6, "userRatingCount": 4630, "displayName": {"text": "La Perle", "languageCode": "en"}, "primaryType": "performing_arts_theater", "paymentOptions": {"acceptsCreditCards": true, "acceptsCashOnly": false}}, {"id": "ChIJ4S0WnetpXz4R1PyfOTyV03E", "types": ["tourist_attraction", "museum", "point_of_interest", "establishment"], "formattedAddress": "62 4 A St - \u0627\u0644\u0642\u0648\u0632 - \u0627\u0644\u0642\u0648\u0632 1 - \u062f\u0628\u064a - United Arab Emirates", "location": {"latitude": 25.170647199999998, "longitude": 55.2434052}, "rating": 4.7, "userRatingCount": 5600, "displayName": {"text": "OliOli\u00ae - A Must-Visit Children's Play Museum", "languageCode": "en"}, "primaryType": "museum"}, {"id": "ChIJy1o3x49DXz4RG9VDdTcLsv4", "types": ["museum", "point_of_interest", "establishment"], "formattedAddress": "7874+GCV - Al Hamriya - Dubai - United Arab Emirates", "location": {"latitude": 25.2638684, "longitude": 55.3060462}, "rating": 4.6, "userRatingCount": 1577, "displayName": {"text": "Dubai Old City", "languageCode": "en"}, "primaryType": "museum"}, {"id": "ChIJNT40vT9DXz4RBIFRVC4e7bw", "types": ["museum", "point_of_interest", "establishment"], "formattedAddress": "Al Fahidi Fort - Al Fahidi - Dubai - United Arab Emirates", "location": {"latitude": 25.2633966, "longitude": 55.297164699999996}, "rating": 4.3, "userRatingCount": 13887, "displayName": {"text": "Dubai Museum", "languageCode": "en"}, "primaryType": "museum"}, {"id": "ChIJl6Wlj3JDXz4RiuVGW1AttdY", "types": ["middle_eastern_restaurant", "seafood_restaurant", "museum", "cafe", "restaurant", "food", "point_of_interest", "establishment"], "formattedAddress": "Historical Neighbourhood - 79 Al Mussallah Rd - Al Fahidi - Dubai - United Arab Emirates", "location": {"latitude": 25.2637706, "longitude": 55.3007685}, "rating": 4.9, "priceLevel": "PRICE_LEVEL_MODERATE", "userRatingCount": 6045, "displayName": {"text": "Al Khayma Heritage Restaurant | \u0645\u0637\u0639\u0645 \u0627\u0644\u062e\u064a\u0645\u0629 \u0627\u0644\u062a\u0631\u0627\u062b\u064a", "languageCode": "en"}, "takeout": true, "delivery": true, "primaryType": "restaurant", "paymentOptions": {"acceptsCreditCards": true, "acceptsDebitCards": true, "acceptsCashOnly": false}}, {"id": "ChIJ-y_VQqpDXz4R1hgHMuyDNXY", "types": ["museum", "tourist_attraction", "point_of_interest", "establishment"], "formattedAddress": "1 Jumeirah St - Al Mina - Jumeirah 1 - Dubai - United Arab Emirates", "location": {"latitude": 25.241193, "longitude": 55.2694421}, "rating": 4.6, "userRatingCount": 2694, "displayName": {"text": "Etihad Museum", "languageCode": "en"}, "primaryType": "museum"}, {"id": "ChIJobQZTFRDXz4R4f_FTcCbMNo", "types": ["museum", "tourist_attraction", "point_of_interest", "establishment"], "formattedAddress": "Al Seef - Dubai Creek - Dubai - 7873+RP9 - \u0634\u0627\u0631\u0639 \u0627\u0644\u0633\u064a\u0641 - \u0627\u0644\u062d\u0645\u0631\u064a\u0629 - \u062f\u0628\u064a - United Arab Emirates", "location": {"latitude": 25.264473, "longitude": 55.303993899999995}, "rating": 4.2, "userRatingCount": 4241, "displayName": {"text": "Museum Of Illusions", "languageCode": "en"}, "primaryType": "museum"}, {"id": "ChIJl_CSFGldXz4RhlrREDrsiZU", "types": ["museum", "tourist_attraction", "library", "point_of_interest", "establishment"], "formattedAddress": "Jaddaf Waterfront - Dubai - United Arab Emirates", "location": {"latitude": 25.2290425, "longitude": 55.340396899999995}, "rating": 4.5, "userRatingCount": 576, "displayName": {"text": "Jameel Arts Centre", "languageCode": "en"}, "primaryType": "museum"}, {"id": "ChIJv8NPy4JDXz4Rq0g_w3p4eEg", "types": ["museum", "point_of_interest", "establishment"], "formattedAddress": "288 - Al Fahidi - \u062f\u0628\u064a - United Arab Emirates", "location": {"latitude": 25.2664029, "longitude": 55.289430200000005}, "rating": 4.6, "userRatingCount": 2068, "displayName": {"text": "Al Shindagha Museum", "languageCode": "en"}, "primaryType": "museum"}, {"id": "ChIJa7q7StRDXz4RNTF35-PlXRg", "types": ["performing_arts_theater", "event_venue", "point_of_interest", "establishment"], "formattedAddress": "Fairmont Hotel - Trade Centre - Trade Centre 1 - Dubai - United Arab Emirates", "location": {"latitude": 25.226501799999998, "longitude": 55.283870799999995}, "rating": 4.4, "userRatingCount": 1182, "displayName": {"text": "The Theater Dubai", "languageCode": "en"}, "primaryType": "performing_arts_theater", "paymentOptions": {"acceptsCreditCards": true, "acceptsCashOnly": false}}, {"id": "ChIJA5UpYDddXz4RJXrPrEaM7vo", "types": ["tourist_attraction", "museum", "point_of_interest", "establishment"], "formattedAddress": "Dubai - Umm Hurair 2 - Dubai - United Arab Emirates", "location": {"latitude": 25.2358816, "longitude": 55.3282038}, "rating": 4.3, "priceLevel": "PRICE_LEVEL_MODERATE", "userRatingCount": 2089, "displayName": {"text": "Children's City", "languageCode": "en"}, "primaryType": "tourist_attraction"}, {"id": "ChIJc8neLnhrXz4RtVgz3x6dAKs", "types": ["museum", "point_of_interest", "establishment"], "formattedAddress": "1 6A St - Al Quoz - Al Quoz 1 - Dubai - United Arab Emirates", "location": {"latitude": 25.145883500000004, "longitude": 55.225471399999996}, "rating": 4.3, "userRatingCount": 1099, "displayName": {"text": "woo-hoo! UAE - Children's Museum in Dubai", "languageCode": "en"}, "primaryType": "museum"}, {"id": "ChIJGeFcIGpDXz4RaPGPrlOxdp4", "types": ["museum", "point_of_interest", "establishment"], "formattedAddress": "3110233 - Al Khaleej St - Dubai - United Arab Emirates", "location": {"latitude": 25.269877100000002, "longitude": 55.2912014}, "rating": 4.4, "priceLevel": "PRICE_LEVEL_INEXPENSIVE", "userRatingCount": 2001, "displayName": {"text": "Al Shindagha Historic District", "languageCode": "en"}, "primaryType": "museum"}, {"id": "ChIJVZJa3sJDXz4RqVvWZ8eHR2w", "types": ["museum", "point_of_interest", "establishment"], "formattedAddress": "Al Fahidi - Dubai - United Arab Emirates", "location": {"latitude": 25.2647063, "longitude": 55.300356799999996}, "rating": 4.6, "userRatingCount": 128, "displayName": {"text": "Bastakiya", "languageCode": "en"}, "primaryType": "museum"}, {"id": "ChIJr3-7F_NoXz4R43weufXdDvA", "types": ["museum", "sports_complex", "point_of_interest", "establishment"], "formattedAddress": "Muscat St - Nad Al Sheba 1 - Dubai - United Arab Emirates", "location": {"latitude": 25.152623199999997, "longitude": 55.2905059}, "rating": 4.4, "userRatingCount": 620, "displayName": {"text": "Falcon Heritage & Sports Center", "languageCode": "en"}, "primaryType": "museum"}, {"id": "ChIJk0V1bIxpXz4RTp40uIf9K8o", "types": ["performing_arts_theater", "event_venue", "point_of_interest", "establishment"], "formattedAddress": "Building The Curve Building (Entrance A - 4th St - \u0627\u0644\u0642\u0648\u0632 - \u0627\u0644\u0642\u0648\u0632 3 - \u062f\u0628\u064a - United Arab Emirates", "location": {"latitude": 25.1629233, "longitude": 55.235666699999996}, "rating": 4.7, "userRatingCount": 104, "displayName": {"text": "Diverse Performing Arts School and Entertainment", "languageCode": "en"}, "primaryType": "performing_arts_theater"}, {"id": "ChIJXWM28ThDXz4Rqp69suwZil8", "types": ["museum", "tourist_attraction", "coffee_shop", "home_goods_store", "cafe", "store", "food", "point_of_interest", "establishment"], "formattedAddress": "Historical Neighborhood, Bastakiya, Villa 44 - Al Hisn St - Al Fahidi - Dubai - United Arab Emirates", "location": {"latitude": 25.2637195, "longitude": 55.3000933}, "rating": 4.4, "userRatingCount": 1090, "displayName": {"text": "Coffee Museum", "languageCode": "en"}, "primaryType": "museum"}]